uid,observed_on,place_guess,description,tags,timestamp,lat,lon,photo_url,name,image_path
198253911,2024/02/01 8:33 AM,"Granite Falls, United States",perros ferales ,,2024-02-01,48.07805193545134,-121.98813557213785,https://inaturalist-open-data.s3.amazonaws.com/photos/349383630/original.jpeg,Domesticated Dog,/content/drive/MyDrive/SU/dog-compass/dog-data/Domesticated Dog/photos/198253911-2024-02-01.jpg
198249213,2024/01/31 13:25,"Anacortes, United States",,,2024-01-31,48.57172970165194,-122.65625617460884,https://inaturalist-open-data.s3.amazonaws.com/photos/349372233/original.jpeg,Domesticated Dog,/content/drive/MyDrive/SU/dog-compass/dog-data/Domesticated Dog/photos/198249213-2024-01-31.jpg
198243330,2023-08-28 10:34:36-04:00,"Lofall, United States",,,2023-08-28,47.862001870570644,-122.6915310700722,https://static.inaturalist.org/photos/349364107/original.jpg,Domesticated Dog,/content/drive/MyDrive/SU/dog-compass/dog-data/Domesticated Dog/photos/198243330-2023-08-28.jpg
198243276,2024-02-02 12:39:42-05:00,"Seabeck, United States",,,2024-02-02,47.675261782299806,-122.86755803413082,https://inaturalist-open-data.s3.amazonaws.com/photos/349363970/original.jpg,Domesticated Dog,/content/drive/MyDrive/SU/dog-compass/dog-data/Domesticated Dog/photos/198243276-2024-02-02.jpg
198237527,2024/02/02 13:34,"Cle Elum, United States",,,2024-02-02,47.04680698268831,-121.18288105495469,https://inaturalist-open-data.s3.amazonaws.com/photos/349352296/original.jpg,Domesticated Dog,/content/drive/MyDrive/SU/dog-compass/dog-data/Domesticated Dog/photos/198237527-2024-02-02.jpg
198209619,2024-01-26 18:02:55,"Port Ludlow, United States",,,2024-01-26,47.86073881148347,-122.71295405169512,https://inaturalist-open-data.s3.amazonaws.com/photos/349298672/original.jpeg,Domesticated Dog,/content/drive/MyDrive/SU/dog-compass/dog-data/Domesticated Dog/photos/198209619-2024-01-26.jpg
198206824,2024/02/01 17:43,"Coupeville, United States",,,2024-02-01,48.21809850473204,-122.76634816784606,https://inaturalist-open-data.s3.amazonaws.com/photos/349288666/original.jpg,Domesticated Dog,/content/drive/MyDrive/SU/dog-compass/dog-data/Domesticated Dog/photos/198206824-2024-02-01.jpg
198206634,2024/01/30 12:35 PM,"Stanwood, United States",,,2024-01-30,48.234695129808145,-122.36847238224529,https://inaturalist-open-data.s3.amazonaws.com/photos/349290354/original.jpeg,Domesticated Dog,/content/drive/MyDrive/SU/dog-compass/dog-data/Domesticated Dog/photos/198206634-2024-01-30.jpg
198206624,2024/01/29 8:34 AM,"Olympia, United States",,,2024-01-29,47.154386833738826,-122.91065086985293,https://inaturalist-open-data.s3.amazonaws.com/photos/349290297/original.jpeg,Domesticated Dog,/content/drive/MyDrive/SU/dog-compass/dog-data/Domesticated Dog/photos/198206624-2024-01-29.jpg
198203181,2024/01/29 8:52 AM,"Friday Harbor, United States",perro feral ,,2024-01-29,48.68621681086459,-123.01556018095555,https://inaturalist-open-data.s3.amazonaws.com/photos/349284684/original.jpg,Domesticated Dog,/content/drive/MyDrive/SU/dog-compass/dog-data/Domesticated Dog/photos/198203181-2024-01-29.jpg
198157097,2014/06/02 16:41,"Sequim, United States",,,2014-06-02,48.256982921921725,-122.96596621439447,https://inaturalist-open-data.s3.amazonaws.com/photos/349185513/original.jpeg,Domesticated Dog,/content/drive/MyDrive/SU/dog-compass/dog-data/Domesticated Dog/photos/198157097-2014-06-02.jpg
198156715,2024-02-01 10:33:19,"Geneva, United States","Canis familiaris Linnaeus, 1758 
","T01356, R0016R, –æ–ø–¥–≤, —Å–ø–æ—Ä, –ø—Ä—Å, –∂–∏–≤, –ù111–ù, –ö–¢, –†–°–ú, –í–¢, T01228, T01229, T01234, T02475, T02476, T02477, T01396, T01675, T01676, T00273, G0053G, G0016G, G0017G, KV0207, G0015G, KV0123, KV0156, KV0180, –ù_laurelthrone, –ü, –ù_arielflorentino, 999",2024-02-01,48.72422390549228,-122.43688864026522,https://inaturalist-open-data.s3.amazonaws.com/photos/349189940/original.jpeg,Domesticated Dog,/content/drive/MyDrive/SU/dog-compass/dog-data/Domesticated Dog/photos/198156715-2024-02-01.jpg
198132580,2024/01/10 12:02,"Cle Elum, United States",,,2024-01-10,47.064639616953734,-121.21197125689595,https://inaturalist-open-data.s3.amazonaws.com/photos/349126242/original.jpeg,Domesticated Dog,/content/drive/MyDrive/SU/dog-compass/dog-data/Domesticated Dog/photos/198132580-2024-01-10.jpg
198132526,2024/01/09 07:02,"Cle Elum, United States",,,2024-01-09,47.612214447992116,-121.11855361701687,https://inaturalist-open-data.s3.amazonaws.com/photos/349125619/original.jpeg,Domesticated Dog,/content/drive/MyDrive/SU/dog-compass/dog-data/Domesticated Dog/photos/198132526-2024-01-09.jpg
198122823,2024-02-01 17:08:07+07:00,"Coupeville, United States",,,2024-02-01,48.16725103232018,-122.70481197905612,https://inaturalist-open-data.s3.amazonaws.com/photos/349124506/original.jpg,Domesticated Dog,/content/drive/MyDrive/SU/dog-compass/dog-data/Domesticated Dog/photos/198122823-2024-02-01.jpg
198122172,2023/10/05 11:32,"Sedro-Woolley, United States",,,2023-10-05,48.58361817187148,-121.861994148236,https://inaturalist-open-data.s3.amazonaws.com/photos/349122921/original.jpg,Domesticated Dog,/content/drive/MyDrive/SU/dog-compass/dog-data/Domesticated Dog/photos/198122172-2023-10-05.jpg
198117590,2024-01-01 15:36:48,"Yarrow Point, United States",,,2024-01-01,47.65595719641975,-122.2498802709838,https://inaturalist-open-data.s3.amazonaws.com/photos/349114067/original.jpeg,Domesticated Dog,/content/drive/MyDrive/SU/dog-compass/dog-data/Domesticated Dog/photos/198117590-2024-01-01.jpg
198094993,2024/02/01 5:33 AM,"Darrington, United States",,,2024-02-01,48.045153153498,-121.57401551561682,https://inaturalist-open-data.s3.amazonaws.com/photos/349067219/original.jpeg,Domesticated Dog,/content/drive/MyDrive/SU/dog-compass/dog-data/Domesticated Dog/photos/198094993-2024-02-01.jpg
198055124,2024/01/07 17:26,"Darrington, United States",,,2024-01-07,48.103308407823846,-121.56140745496961,https://inaturalist-open-data.s3.amazonaws.com/photos/348984735/original.jpeg,Domesticated Dog,/content/drive/MyDrive/SU/dog-compass/dog-data/Domesticated Dog/photos/198055124-2024-01-07.jpg
198054784,2024-01-31 19:30:39+05:30,"Prairie Heights, United States",,,2024-01-31,47.159049855088554,-122.10909025172441,https://inaturalist-open-data.s3.amazonaws.com/photos/348987373/original.jpg,Domesticated Dog,/content/drive/MyDrive/SU/dog-compass/dog-data/Domesticated Dog/photos/198054784-2024-01-31.jpg
198052454,2021/08/18 5:22 PM,"Arlington Heights, United States",Swam purposefully across Hedlow Creek. ,,2021-08-18,48.37375691526963,-121.97685850420832,https://inaturalist-open-data.s3.amazonaws.com/photos/348982911/original.jpeg,Domesticated Dog,/content/drive/MyDrive/SU/dog-compass/dog-data/Domesticated Dog/photos/198052454-2021-08-18.jpg
198046721,2024/01/29 16:48,"Hansville, United States",,,2024-01-29,47.91468783048802,-122.60606201996882,https://inaturalist-open-data.s3.amazonaws.com/photos/348971169/original.jpeg,Domesticated Dog,/content/drive/MyDrive/SU/dog-compass/dog-data/Domesticated Dog/photos/198046721-2024-01-29.jpg
198046550,2024/01/14 10:59 AM,"Vashon, United States",,,2024-01-14,47.375434057514504,-122.48388278062833,https://static.inaturalist.org/photos/348970630/original.jpg,Domesticated Dog,/content/drive/MyDrive/SU/dog-compass/dog-data/Domesticated Dog/photos/198046550-2024-01-14.jpg
198044392,2024/01/06 16:27,"McChord Air Force Base, United States",,,2024-01-06,47.12713044035013,-122.4666155050845,https://inaturalist-open-data.s3.amazonaws.com/photos/348963950/original.jpeg,Domesticated Dog,/content/drive/MyDrive/SU/dog-compass/dog-data/Domesticated Dog/photos/198044392-2024-01-06.jpg
198044369,2024/01/06 10:29,"Fircrest, United States",,,2024-01-06,47.208970385929646,-122.51370893014591,https://inaturalist-open-data.s3.amazonaws.com/photos/348963106/original.jpeg,Domesticated Dog,/content/drive/MyDrive/SU/dog-compass/dog-data/Domesticated Dog/photos/198044369-2024-01-06.jpg
198001265,2024-01-30 11:19:21,"Tanner, United States",,,2024-01-30,47.54934822011221,-121.42204075969227,https://static.inaturalist.org/photos/348879301/original.jpeg,Domesticated Dog,/content/drive/MyDrive/SU/dog-compass/dog-data/Domesticated Dog/photos/198001265-2024-01-30.jpg
197978499,2024/01/30 7:29 AM,"Gold Bar, United States",,,2024-01-30,47.708992881149165,-121.48542065241202,https://inaturalist-open-data.s3.amazonaws.com/photos/348834879/original.jpg,Domesticated Dog,/content/drive/MyDrive/SU/dog-compass/dog-data/Domesticated Dog/photos/197978499-2024-01-30.jpg
197972912,2024-01-28 19:10:25,"Sammamish, United States",,,2024-01-28,47.666542897680664,-122.08631027884825,https://inaturalist-open-data.s3.amazonaws.com/photos/348823930/original.jpeg,Domesticated Dog,/content/drive/MyDrive/SU/dog-compass/dog-data/Domesticated Dog/photos/197972912-2024-01-28.jpg
197972242,2024-01-30 10:58:09,"Renton, United States",,,2024-01-30,47.47970129809905,-122.19358602238178,https://inaturalist-open-data.s3.amazonaws.com/photos/348822510/original.jpeg,Domesticated Dog,/content/drive/MyDrive/SU/dog-compass/dog-data/Domesticated Dog/photos/197972242-2024-01-30.jpg
197961371,2024-01-21 15:11:20+03:00,"Cle Elum, United States",,,2024-01-21,47.24620687269725,-121.29017992238268,https://inaturalist-open-data.s3.amazonaws.com/photos/348801753/original.jpg,Domesticated Dog,/content/drive/MyDrive/SU/dog-compass/dog-data/Domesticated Dog/photos/197961371-2024-01-21.jpg
197957863,2024-01-27 10:37:16,"Graham, United States",Passing the Second Chance Dog Rescue at La Joya trailhead a few stray dogs joined me on my hike to the refreshing pools of water beyond trail's end. Easy scramblingüòÉ! https://www.facebook.com/secondvalentin?mibextid=ZbWKwL,,2024-01-27,46.956786361510325,-122.30404467249815,https://static.inaturalist.org/photos/348794938/original.jpeg,Domesticated Dog,/content/drive/MyDrive/SU/dog-compass/dog-data/Domesticated Dog/photos/197957863-2024-01-27.jpg
197951977,2024-01-24 09:00:53+08:00,"Darrington, United States",,,2024-01-24,48.10825168120206,-121.26467180592937,https://inaturalist-open-data.s3.amazonaws.com/photos/348782300/original.jpg,Domesticated Dog,/content/drive/MyDrive/SU/dog-compass/dog-data/Domesticated Dog/photos/197951977-2024-01-24.jpg
197946572,2024-01-29 13:45:16,"Sisco Heights, United States",,,2024-01-29,48.08455443036561,-122.10923213651473,https://inaturalist-open-data.s3.amazonaws.com/photos/348771143/original.jpeg,Domesticated Dog,/content/drive/MyDrive/SU/dog-compass/dog-data/Domesticated Dog/photos/197946572-2024-01-29.jpg
197929669,2023-11-30 20:22:33,"Cle Elum, United States",,,2023-11-30,47.01800617398459,-121.13598326197464,https://inaturalist-open-data.s3.amazonaws.com/photos/348734462/original.jpeg,Domesticated Dog,/content/drive/MyDrive/SU/dog-compass/dog-data/Domesticated Dog/photos/197929669-2023-11-30.jpg
197904791,April 22nd 1999,"Greenwood, United States",Black Beauty with Ed at breakfast time in the gazebo.,,1999-04-22,47.65646733451114,-122.39126375880387,https://inaturalist-open-data.s3.amazonaws.com/photos/348684140/original.jpg,Domesticated Dog,/content/drive/MyDrive/SU/dog-compass/dog-data/Domesticated Dog/photos/197904791-1999-04-22.jpg
197904216,2024-01-28 19:24:38-05:00,"Darrington, United States","Pam Barry, the owner and manager of Golden Rock, with BB, aka Black Beauty, her dog.",,2024-01-28,48.66720440761491,-121.29381448981015,https://inaturalist-open-data.s3.amazonaws.com/photos/348682986/original.jpg,Domesticated Dog,/content/drive/MyDrive/SU/dog-compass/dog-data/Domesticated Dog/photos/197904216-2024-01-28.jpg
197897477,2024-01-29 17:07:00+07:00,"Key Center, United States",,,2024-01-29,47.31651871432458,-122.77933879219275,https://inaturalist-open-data.s3.amazonaws.com/photos/348669173/original.jpg,Domesticated Dog,/content/drive/MyDrive/SU/dog-compass/dog-data/Domesticated Dog/photos/197897477-2024-01-29.jpg
197891832,2024/01/29 15:26,"Bellingham, United States",,,2024-01-29,48.72945363653838,-122.47578677050949,https://inaturalist-open-data.s3.amazonaws.com/photos/348658822/original.jpg,Domesticated Dog,/content/drive/MyDrive/SU/dog-compass/dog-data/Domesticated Dog/photos/197891832-2024-01-29.jpg
197884078,2024-01-29 17:44:02+05:30,"Cle Elum, United States",KMBT ,,2024-01-29,46.952791697333055,-121.22569000644945,https://static.inaturalist.org/photos/348643568/original.jpg,Domesticated Dog,/content/drive/MyDrive/SU/dog-compass/dog-data/Domesticated Dog/photos/197884078-2024-01-29.jpg
197881537,1994/09/15,"Tanner, United States",,,1994-09-15,47.435086279426145,-121.65143990644623,https://inaturalist-open-data.s3.amazonaws.com/photos/348638158/original.jpg,Domesticated Dog,/content/drive/MyDrive/SU/dog-compass/dog-data/Domesticated Dog/photos/197881537-1994-09-15.jpg
197867106,2024-01-23 11:46:02,"Cottage Lake, United States","–ë—Ä–æ–¥—è—á–∏–µ —Å–æ–±–∞–∫–∏ —Å—Ç–µ—Ä–∏–ª–∏–∑–æ–≤–∞–Ω—ã. –û–Ω–∏ –∂–∏–≤—É—Ç –≤ —Ä–æ—â–µ –Ω–∞ —É—á–∞—Å—Ç–∫–µ –∫—Ä–∞–µ–≤–µ–¥—á–µ—Å–∫–æ–≥–æ –º—É–∑–µ—è. –¢–∞–º –≤—Å—ë –∑–∞–ø—É—â–µ–Ω–æ –∏ –∑–∞—Ä–æ—Å–ª–æ. –°–æ–±–∞–∫–∏ –Ω–µ —Å–∏–ª—å–Ω–æ –∞–≥—Ä–µ—Å—Å–∏–≤–Ω—ã–µ, –Ω–æ –∫ —Å–µ–±–µ —Å—Ç–∞—Ä–∞—é—Ç—Å—è –Ω–∏ –∫–æ–≥–æ –Ω–µ –ø–æ–¥–ø—É—Å–∫–∞—Ç—å.",,2024-01-23,47.80109608004794,-122.04331877346672,https://inaturalist-open-data.s3.amazonaws.com/photos/348607224/original.jpeg,Domesticated Dog,/content/drive/MyDrive/SU/dog-compass/dog-data/Domesticated Dog/photos/197867106-2024-01-23.jpg
197865471,2023/11/05 1:28 PM,"Port Ludlow, United States",,,2023-11-05,47.90559541565781,-122.71709824744163,https://static.inaturalist.org/photos/348603515/original.jpg,Domesticated Dog,/content/drive/MyDrive/SU/dog-compass/dog-data/Domesticated Dog/photos/197865471-2023-11-05.jpg
197860842,2024/01/27 7:08 PM,"Wilderness Rim, United States",,,2024-01-27,47.33716463500353,-121.70452045792827,https://inaturalist-open-data.s3.amazonaws.com/photos/348593463/original.jpeg,Domesticated Dog,/content/drive/MyDrive/SU/dog-compass/dog-data/Domesticated Dog/photos/197860842-2024-01-27.jpg
197842515,2024-01-28 17:18:50-06:00,"Darrington, United States","DOR domestic dog 
",,2024-01-28,48.24360888005134,-121.70437102003152,https://static.inaturalist.org/photos/348555761/original.jpg,Domesticated Dog,/content/drive/MyDrive/SU/dog-compass/dog-data/Domesticated Dog/photos/197842515-2024-01-28.jpg
197842258,2024-01-28 17:16:14-06:00,"Belfair, United States",DOR domestic dog thot it was a coyote at first given the color ,,2024-01-28,47.53199826520391,-122.78323648660164,https://static.inaturalist.org/photos/348555370/original.jpg,Domesticated Dog,/content/drive/MyDrive/SU/dog-compass/dog-data/Domesticated Dog/photos/197842258-2024-01-28.jpg
197841099,2024/01/28 6:29 PM,"Elk Plain, United States",,,2024-01-28,47.039483392930485,-122.42975645658545,https://inaturalist-open-data.s3.amazonaws.com/photos/348552773/original.jpeg,Domesticated Dog,/content/drive/MyDrive/SU/dog-compass/dog-data/Domesticated Dog/photos/197841099-2024-01-28.jpg
197825241,2024/01/21 10:25 AM,"Lofall, United States",,,2024-01-21,47.85755846725511,-122.66934580851695,https://inaturalist-open-data.s3.amazonaws.com/photos/348518592/original.jpg,Domesticated Dog,/content/drive/MyDrive/SU/dog-compass/dog-data/Domesticated Dog/photos/197825241-2024-01-21.jpg
197825238,2024/01/21 10:25 AM,"Darrington, United States",,,2024-01-21,48.42715650907534,-121.6700171024037,https://inaturalist-open-data.s3.amazonaws.com/photos/348518484/original.jpg,Domesticated Dog,/content/drive/MyDrive/SU/dog-compass/dog-data/Domesticated Dog/photos/197825238-2024-01-21.jpg
197814211,2024/01/12 4:53 PM,"Inglewood-Finn Hill, United States",,,2024-01-12,47.713612308076584,-122.25834318610084,https://inaturalist-open-data.s3.amazonaws.com/photos/348497662/original.jpeg,Domesticated Dog,/content/drive/MyDrive/SU/dog-compass/dog-data/Domesticated Dog/photos/197814211-2024-01-12.jpg
197777643,2024-01-28 10:20:12+07:00,"Hansville, United States",,,2024-01-28,47.876433611872805,-122.5480969427153,https://static.inaturalist.org/photos/348424885/original.jpg,Domesticated Dog,/content/drive/MyDrive/SU/dog-compass/dog-data/Domesticated Dog/photos/197777643-2024-01-28.jpg
197758991,2024-01-28 10:40:51+07:00,"Sudden Valley, United States",,,2024-01-28,48.644469315830435,-122.33801986282977,https://inaturalist-open-data.s3.amazonaws.com/photos/348387084/original.jpg,Domesticated Dog,/content/drive/MyDrive/SU/dog-compass/dog-data/Domesticated Dog/photos/197758991-2024-01-28.jpg
197747958,2024-01-16 10:07:26+10:00,"Darrington, United States",,,2024-01-16,48.54620537714523,-121.74872599525975,https://inaturalist-open-data.s3.amazonaws.com/photos/348364516/original.jpg,Domesticated Dog,/content/drive/MyDrive/SU/dog-compass/dog-data/Domesticated Dog/photos/197747958-2024-01-16.jpg
197722578,2013/05/25,"Clear Lake, United States",,,2013-05-25,48.47143519185964,-122.07633987436894,https://inaturalist-open-data.s3.amazonaws.com/photos/348313407/original.jpg,Domesticated Dog,/content/drive/MyDrive/SU/dog-compass/dog-data/Domesticated Dog/photos/197722578-2013-05-25.jpg
197714282,2024/01/27 11:19 AM,"Olympia, United States",,,2024-01-27,47.179111142254406,-122.93262042640153,https://inaturalist-open-data.s3.amazonaws.com/photos/348296299/original.jpeg,Domesticated Dog,/content/drive/MyDrive/SU/dog-compass/dog-data/Domesticated Dog/photos/197714282-2024-01-27.jpg
197704942,2024/01/05 12:34,"Darrington, United States",,,2024-01-05,48.48270992859047,-121.10797222615244,https://inaturalist-open-data.s3.amazonaws.com/photos/348278719/original.jpeg,Domesticated Dog,/content/drive/MyDrive/SU/dog-compass/dog-data/Domesticated Dog/photos/197704942-2024-01-05.jpg
197700778,2024-01-27 17:13:41,"Longbranch, United States",,,2024-01-27,47.15141556946267,-122.8042060615756,https://inaturalist-open-data.s3.amazonaws.com/photos/348270830/original.jpeg,Domesticated Dog,/content/drive/MyDrive/SU/dog-compass/dog-data/Domesticated Dog/photos/197700778-2024-01-27.jpg
197650958,2013-05-11 11:35:49,"Freeland, United States",,,2013-05-11,48.0321330490607,-122.61754886667077,https://static.inaturalist.org/photos/348171019/original.jpeg,Domesticated Dog,/content/drive/MyDrive/SU/dog-compass/dog-data/Domesticated Dog/photos/197650958-2013-05-11.jpg
197644504,2013/05/23,"Darrington, United States",,,2013-05-23,48.21908332066391,-121.12173398064809,https://inaturalist-open-data.s3.amazonaws.com/photos/348158655/original.jpg,Domesticated Dog,/content/drive/MyDrive/SU/dog-compass/dog-data/Domesticated Dog/photos/197644504-2013-05-23.jpg
197643021,2024-01-27 09:42:11,"Oak Harbor, United States",,,2024-01-27,48.35048122787057,-122.58778625658368,https://inaturalist-open-data.s3.amazonaws.com/photos/348155947/original.jpeg,Domesticated Dog,/content/drive/MyDrive/SU/dog-compass/dog-data/Domesticated Dog/photos/197643021-2024-01-27.jpg
197614126,2024/01/26 3:54 PM,"Browns Point, United States",,,2024-01-26,47.32636436813194,-122.4378852020105,https://inaturalist-open-data.s3.amazonaws.com/photos/348100631/original.jpeg,Domesticated Dog,/content/drive/MyDrive/SU/dog-compass/dog-data/Domesticated Dog/photos/197614126-2024-01-26.jpg
197612426,2024/01/26 8:11 AM,"Darrington, United States",,,2024-01-26,48.09826397539257,-121.68791790494431,https://inaturalist-open-data.s3.amazonaws.com/photos/348097208/original.jpg,Domesticated Dog,/content/drive/MyDrive/SU/dog-compass/dog-data/Domesticated Dog/photos/197612426-2024-01-26.jpg
197611598,2024/01/26 7:46 AM,"Eatonville, United States",,,2024-01-26,46.88353956808506,-122.16162832682163,https://inaturalist-open-data.s3.amazonaws.com/photos/348095316/original.jpg,Domesticated Dog,/content/drive/MyDrive/SU/dog-compass/dog-data/Domesticated Dog/photos/197611598-2024-01-26.jpg
197611257,2024/01/26 6:47 AM,"Hobart, United States",,,2024-01-26,47.39998965153452,-121.87341721710354,https://inaturalist-open-data.s3.amazonaws.com/photos/348094564/original.jpg,Domesticated Dog,/content/drive/MyDrive/SU/dog-compass/dog-data/Domesticated Dog/photos/197611257-2024-01-26.jpg
197610040,2024-01-25 13:52:17+08:00,"Oak Harbor, United States",,,2024-01-25,48.331220024080785,-122.52949564683195,https://inaturalist-open-data.s3.amazonaws.com/photos/348092353/original.jpg,Domesticated Dog,/content/drive/MyDrive/SU/dog-compass/dog-data/Domesticated Dog/photos/197610040-2024-01-25.jpg
197607643,2024-01-26 16:09:12,"Riverbend, United States",,,2024-01-26,47.21453305978511,-121.4727011136406,https://inaturalist-open-data.s3.amazonaws.com/photos/348087661/original.jpeg,Domesticated Dog,/content/drive/MyDrive/SU/dog-compass/dog-data/Domesticated Dog/photos/197607643-2024-01-26.jpg
197599095,2024-01-26 13:34:30+07:00,"Burlington, United States",,,2024-01-26,48.5507323590723,-122.30832079839941,https://inaturalist-open-data.s3.amazonaws.com/photos/348071142/original.jpg,Domesticated Dog,/content/drive/MyDrive/SU/dog-compass/dog-data/Domesticated Dog/photos/197599095-2024-01-26.jpg
197574359,2023/12/27 9:34 AM,"Tanner, United States",Hunter Camera,,2023-12-27,47.60838483210986,-121.56199897812311,https://inaturalist-open-data.s3.amazonaws.com/photos/348019782/original.jpeg,Domesticated Dog,/content/drive/MyDrive/SU/dog-compass/dog-data/Domesticated Dog/photos/197574359-2023-12-27.jpg
197570300,2006/05/01 1:53 PM,"Darrington, United States",,,2006-05-01,48.170619917327514,-121.58856898579157,https://static.inaturalist.org/photos/348010249/original.jpeg,Domesticated Dog,/content/drive/MyDrive/SU/dog-compass/dog-data/Domesticated Dog/photos/197570300-2006-05-01.jpg
197569042,2024/01/24 8:51 AM,"Port Ludlow, United States",perros ferales ,,2024-01-24,47.84352415241893,-122.81751301736021,https://inaturalist-open-data.s3.amazonaws.com/photos/348007333/original.jpg,Domesticated Dog,/content/drive/MyDrive/SU/dog-compass/dog-data/Domesticated Dog/photos/197569042-2024-01-24.jpg
197558952,2024-01-25 15:52:40-05:00,"Cle Elum, United States","Private house near the main road, with a boy and two dogs.",,2024-01-25,46.90224093284727,-121.13133972239986,https://inaturalist-open-data.s3.amazonaws.com/photos/347988590/original.jpg,Domesticated Dog,/content/drive/MyDrive/SU/dog-compass/dog-data/Domesticated Dog/photos/197558952-2024-01-25.jpg
197550682,2024-01-25 10:34:03,"Bonney Lake, United States","Canis familiaris Linnaeus, 1758 
","–ù_hinrichmatthes, –ü, T01228, T01229, T01234, T02475, T02476, T02477, T01396, T01675, T01676, T00273, –æ–ø–¥–≤, —Å–ø–æ—Ä, –ù111–ù, –ö–¢, –†–°–ú, –í–¢, T01356, R0016R, G0053G, G0016G, G0017G, KV0207, G0015G, KV0123, KV0156, –ù_arielflorentino",2024-01-25,47.20512946647578,-122.14524944884579,https://inaturalist-open-data.s3.amazonaws.com/photos/347971987/original.jpeg,Domesticated Dog,/content/drive/MyDrive/SU/dog-compass/dog-data/Domesticated Dog/photos/197550682-2024-01-25.jpg
197544859,2024/01/24 15:22,"Stanwood, United States",,,2024-01-24,48.30467935376461,-122.3325950632317,https://inaturalist-open-data.s3.amazonaws.com/photos/347957129/original.jpeg,Domesticated Dog,/content/drive/MyDrive/SU/dog-compass/dog-data/Domesticated Dog/photos/197544859-2024-01-24.jpg
197535885,2024/01/23 14:08,"Darrington, United States",,,2024-01-23,48.13080929638497,-121.55765541559916,https://inaturalist-open-data.s3.amazonaws.com/photos/347941906/original.jpg,Domesticated Dog,/content/drive/MyDrive/SU/dog-compass/dog-data/Domesticated Dog/photos/197535885-2024-01-23.jpg
197535883,2024/01/23 13:51,"Shelton, United States",,,2024-01-23,47.12817744367589,-123.04802095325813,https://inaturalist-open-data.s3.amazonaws.com/photos/347941231/original.jpg,Domesticated Dog,/content/drive/MyDrive/SU/dog-compass/dog-data/Domesticated Dog/photos/197535883-2024-01-23.jpg
197533784,2023/12/30 2:03 PM,"Olympia, United States",,,2023-12-30,47.16624810759133,-122.9144739141542,https://inaturalist-open-data.s3.amazonaws.com/photos/347937327/original.jpg,Domesticated Dog,/content/drive/MyDrive/SU/dog-compass/dog-data/Domesticated Dog/photos/197533784-2023-12-30.jpg
197532212,2024/01/24 15:00,"Darrington, United States",,"photography, dog, nature, Observations",2024-01-24,48.35181861439824,-121.41346028954952,https://inaturalist-open-data.s3.amazonaws.com/photos/347934106/original.jpg,Domesticated Dog,/content/drive/MyDrive/SU/dog-compass/dog-data/Domesticated Dog/photos/197532212-2024-01-24.jpg
197529664,2023/08/21 1:25 PM,"Darrington, United States",stray,,2023-08-21,48.5409032278114,-121.26118307793672,https://inaturalist-open-data.s3.amazonaws.com/photos/347928134/original.jpeg,Domesticated Dog,/content/drive/MyDrive/SU/dog-compass/dog-data/Domesticated Dog/photos/197529664-2023-08-21.jpg
197529660,2023/08/21 11:23 AM,"Sequim, United States",stray,,2023-08-21,47.86908315577995,-123.01220605751678,https://inaturalist-open-data.s3.amazonaws.com/photos/347927971/original.jpeg,Domesticated Dog,/content/drive/MyDrive/SU/dog-compass/dog-data/Domesticated Dog/photos/197529660-2023-08-21.jpg
197529653,2023/08/20 3:12 PM,"Sequim, United States",stray,,2023-08-20,48.24897632397764,-122.98315478359784,https://inaturalist-open-data.s3.amazonaws.com/photos/347926946/original.jpeg,Domesticated Dog,/content/drive/MyDrive/SU/dog-compass/dog-data/Domesticated Dog/photos/197529653-2023-08-20.jpg
197528622,2023/08/20 12:10 PM,"Allyn, United States",stray,,2023-08-20,47.32500312164812,-122.84359828460754,https://inaturalist-open-data.s3.amazonaws.com/photos/347926432/original.jpeg,Domesticated Dog,/content/drive/MyDrive/SU/dog-compass/dog-data/Domesticated Dog/photos/197528622-2023-08-20.jpg
197528275,2023/08/19 7:33 AM,"Cle Elum, United States",stray,,2023-08-19,46.927159037023706,-121.40252179747044,https://inaturalist-open-data.s3.amazonaws.com/photos/347924899/original.jpeg,Domesticated Dog,/content/drive/MyDrive/SU/dog-compass/dog-data/Domesticated Dog/photos/197528275-2023-08-19.jpg
197528271,2023/08/19 6:41 AM,"Wilderness Rim, United States",stray,,2023-08-19,47.2322118766382,-121.64536408035234,https://inaturalist-open-data.s3.amazonaws.com/photos/347924698/original.jpeg,Domesticated Dog,/content/drive/MyDrive/SU/dog-compass/dog-data/Domesticated Dog/photos/197528271-2023-08-19.jpg
197527410,2023/08/18 7:49 PM,"Wilderness Rim, United States",stray,,2023-08-18,47.13253251635515,-121.62943897810567,https://inaturalist-open-data.s3.amazonaws.com/photos/347924302/original.jpeg,Domesticated Dog,/content/drive/MyDrive/SU/dog-compass/dog-data/Domesticated Dog/photos/197527410-2023-08-18.jpg
197517919,2013-01-07 17:40:31,"Tanner, United States",,,2013-01-07,47.480285767792836,-121.63054058571093,https://static.inaturalist.org/photos/347904675/original.jpeg,Domesticated Dog,/content/drive/MyDrive/SU/dog-compass/dog-data/Domesticated Dog/photos/197517919-2013-01-07.jpg
197511282,2013/05/21,"Riverbend, United States",,,2013-05-21,47.368867877733635,-121.59259172421405,https://inaturalist-open-data.s3.amazonaws.com/photos/347890689/original.jpg,Domesticated Dog,/content/drive/MyDrive/SU/dog-compass/dog-data/Domesticated Dog/photos/197511282-2013-05-21.jpg
197473528,2024-01-24,"Seabeck, United States",,,2024-01-24,47.554011113599834,-122.8633505595235,https://inaturalist-open-data.s3.amazonaws.com/photos/347814877/original.jpeg,Domesticated Dog,/content/drive/MyDrive/SU/dog-compass/dog-data/Domesticated Dog/photos/197473528-2024-01-24.jpg
197471996,2024-01-24 19:27:00,"Darrington, United States",,,2024-01-24,48.29281599695624,-121.79209377120623,https://inaturalist-open-data.s3.amazonaws.com/photos/347811872/original.jpeg,Domesticated Dog,/content/drive/MyDrive/SU/dog-compass/dog-data/Domesticated Dog/photos/197471996-2024-01-24.jpg
197468986,2023/03/28 3:31 PM,"Darrington, United States",,,2023-03-28,48.04894270822518,-121.22426060680817,https://inaturalist-open-data.s3.amazonaws.com/photos/347804704/original.jpg,Domesticated Dog,/content/drive/MyDrive/SU/dog-compass/dog-data/Domesticated Dog/photos/197468986-2023-03-28.jpg
197464621,2024/01/24 5:07 PM,"Kingston, United States",,,2024-01-24,47.8837344591956,-122.4661480771582,https://inaturalist-open-data.s3.amazonaws.com/photos/347795926/original.jpeg,Domesticated Dog,/content/drive/MyDrive/SU/dog-compass/dog-data/Domesticated Dog/photos/197464621-2024-01-24.jpg
197464618,2024/01/24 5:04 PM,"Enumclaw, United States",,,2024-01-24,47.24164044471373,-121.82293718846681,https://inaturalist-open-data.s3.amazonaws.com/photos/347795914/original.jpeg,Domesticated Dog,/content/drive/MyDrive/SU/dog-compass/dog-data/Domesticated Dog/photos/197464618-2024-01-24.jpg
197462215,2023/07/18 17:36,"Granite Falls, United States",,,2023-07-18,48.02627311988941,-121.878852941387,https://inaturalist-open-data.s3.amazonaws.com/photos/347792106/original.jpg,Domesticated Dog,/content/drive/MyDrive/SU/dog-compass/dog-data/Domesticated Dog/photos/197462215-2023-07-18.jpg
197451525,2024/01/13 12:52 PM,"Port Townsend, United States",,,2024-01-13,48.11580140499053,-122.7465751098565,https://inaturalist-open-data.s3.amazonaws.com/photos/347767220/original.jpg,Domesticated Dog,/content/drive/MyDrive/SU/dog-compass/dog-data/Domesticated Dog/photos/197451525-2024-01-13.jpg
197444550,2023-04-26 01:12:03-04:00,"Cle Elum, United States",Street dog,,2023-04-26,47.327297187262005,-121.16073275676014,https://inaturalist-open-data.s3.amazonaws.com/photos/347757218/original.jpg,Domesticated Dog,/content/drive/MyDrive/SU/dog-compass/dog-data/Domesticated Dog/photos/197444550-2023-04-26.jpg
197444089,2023-04-21 18:57:42-04:00,"Darrington, United States",Street dog 3/3,,2023-04-21,48.232300910084575,-121.09057996004556,https://inaturalist-open-data.s3.amazonaws.com/photos/347756156/original.jpg,Domesticated Dog,/content/drive/MyDrive/SU/dog-compass/dog-data/Domesticated Dog/photos/197444089-2023-04-21.jpg
197444080,2023-04-21 18:57:31-04:00,"Cle Elum, United States",Street dog 2/3,,2023-04-21,47.1404836741964,-121.39363456694825,https://inaturalist-open-data.s3.amazonaws.com/photos/347756130/original.jpg,Domesticated Dog,/content/drive/MyDrive/SU/dog-compass/dog-data/Domesticated Dog/photos/197444080-2023-04-21.jpg
197444054,2023-04-21 18:56:30-04:00,"Arlington Heights, United States",Street dog 1/3,,2023-04-21,48.30719482121864,-122.00387642823267,https://inaturalist-open-data.s3.amazonaws.com/photos/347756100/original.jpg,Domesticated Dog,/content/drive/MyDrive/SU/dog-compass/dog-data/Domesticated Dog/photos/197444054-2023-04-21.jpg
197443718,2023-04-21 15:58:54-04:00,"Leavenworth, United States",Street dog ,,2023-04-21,47.66687747586644,-121.17544545840629,https://inaturalist-open-data.s3.amazonaws.com/photos/347755261/original.jpg,Domesticated Dog,/content/drive/MyDrive/SU/dog-compass/dog-data/Domesticated Dog/photos/197443718-2023-04-21.jpg
197443684,2023-04-21 15:58:33-04:00,"Burley, United States",Street dog,,2023-04-21,47.433729852687,-122.71844204781357,https://inaturalist-open-data.s3.amazonaws.com/photos/347755210/original.jpg,Domesticated Dog,/content/drive/MyDrive/SU/dog-compass/dog-data/Domesticated Dog/photos/197443684-2023-04-21.jpg
197443633,2023/12/27 3:55 PM,"Arlington Heights, United States",,,2023-12-27,48.315626591623555,-122.00677358260516,https://static.inaturalist.org/photos/347752195/original.jpg,Domesticated Dog,/content/drive/MyDrive/SU/dog-compass/dog-data/Domesticated Dog/photos/197443633-2023-12-27.jpg
197443574,2023-04-17 00:28:43-04:00,"Woodway, United States",Street dog,,2023-04-16,47.78263358066212,-122.43107318173209,https://inaturalist-open-data.s3.amazonaws.com/photos/347755090/original.jpg,Domesticated Dog,/content/drive/MyDrive/SU/dog-compass/dog-data/Domesticated Dog/photos/197443574-2023-04-16.jpg
197443548,2023-04-17 00:28:00-04:00,"Gold Bar, United States",Street dog,,2023-04-16,47.65278097290788,-121.33349485290603,https://inaturalist-open-data.s3.amazonaws.com/photos/347756771/original.jpeg,Domesticated Dog,/content/drive/MyDrive/SU/dog-compass/dog-data/Domesticated Dog/photos/197443548-2023-04-16.jpg
197443247,2023-03-24 01:06:14-04:00,"Darrington, United States","Not mine and not anyone's, at this time. She was wandering the beach. She was very hungry and sad acting. She was a stray that we brought back across border to CA after getting shots. ",,2023-03-23,48.577230210981135,-121.73511343572657,https://inaturalist-open-data.s3.amazonaws.com/photos/347754584/original.jpg,Domesticated Dog,/content/drive/MyDrive/SU/dog-compass/dog-data/Domesticated Dog/photos/197443247-2023-03-23.jpg
197430655,2024-01-24 09:25:07+08:00,"Bothell East, United States",,,2024-01-24,47.790917795843555,-122.18106307838077,https://inaturalist-open-data.s3.amazonaws.com/photos/347728630/original.jpg,Domesticated Dog,/content/drive/MyDrive/SU/dog-compass/dog-data/Domesticated Dog/photos/197430655-2024-01-24.jpg
197430654,2024-01-24 09:18:18+08:00,"Tumwater, United States",,,2024-01-24,47.02765611391456,-122.92241064066056,https://inaturalist-open-data.s3.amazonaws.com/photos/347728591/original.jpg,Domesticated Dog,/content/drive/MyDrive/SU/dog-compass/dog-data/Domesticated Dog/photos/197430654-2024-01-24.jpg
197427602,2024-01-24 09:03:53+08:00,"Puyallup, United States",,,2024-01-24,47.15304172164381,-122.3097644179703,https://inaturalist-open-data.s3.amazonaws.com/photos/347728570/original.jpg,Domesticated Dog,/content/drive/MyDrive/SU/dog-compass/dog-data/Domesticated Dog/photos/197427602-2024-01-24.jpg
197426774,2024-01-24 08:31:16+08:00,"North Fort Lewis, United States",,,2024-01-24,47.11157734243439,-122.59107210117101,https://inaturalist-open-data.s3.amazonaws.com/photos/347728548/original.jpg,Domesticated Dog,/content/drive/MyDrive/SU/dog-compass/dog-data/Domesticated Dog/photos/197426774-2024-01-24.jpg
197420073,2024-01-23 16:40:17,"Kingston, United States",No collar on this stray dog. Beautiful animal. ,,2024-01-23,47.82304408237413,-122.47060142856539,https://inaturalist-open-data.s3.amazonaws.com/photos/347706112/original.jpeg,Domesticated Dog,/content/drive/MyDrive/SU/dog-compass/dog-data/Domesticated Dog/photos/197420073-2024-01-23.jpg
197416992,2024-01-14 17:56:16-06:00,"Darrington, United States",,,2024-01-14,48.167255422418286,-121.76126341504003,https://inaturalist-open-data.s3.amazonaws.com/photos/347699911/original.jpg,Domesticated Dog,/content/drive/MyDrive/SU/dog-compass/dog-data/Domesticated Dog/photos/197416992-2024-01-14.jpg
197371435,2024-01-08 10:41:14+08:00,"Woods Creek, United States",,,2024-01-08,47.86302641984535,-121.9275681061749,https://inaturalist-open-data.s3.amazonaws.com/photos/347606949/original.jpg,Domesticated Dog,/content/drive/MyDrive/SU/dog-compass/dog-data/Domesticated Dog/photos/197371435-2024-01-08.jpg
197371418,2023-04-10 07:36:43+10:00,"Enumclaw, United States",,,2023-04-10,46.88397560690172,-121.64082000983112,https://inaturalist-open-data.s3.amazonaws.com/photos/347606923/original.jpg,Domesticated Dog,/content/drive/MyDrive/SU/dog-compass/dog-data/Domesticated Dog/photos/197371418-2023-04-10.jpg
197343294,2017-10-21 16:00:00-04:00,"Darrington, United States",Appeared stray,,2017-10-21,48.70924128911397,-121.48731027558976,https://inaturalist-open-data.s3.amazonaws.com/photos/347549781/original.jpg,Domesticated Dog,/content/drive/MyDrive/SU/dog-compass/dog-data/Domesticated Dog/photos/197343294-2017-10-21.jpg
197343272,2017-10-21 16:00:00-04:00,"Stanwood, United States",Appeared stray,,2017-10-21,48.29729976809079,-122.30503455429213,https://inaturalist-open-data.s3.amazonaws.com/photos/347549731/original.jpg,Domesticated Dog,/content/drive/MyDrive/SU/dog-compass/dog-data/Domesticated Dog/photos/197343272-2017-10-21.jpg
197339326,"April 18th, 1995","Seabeck, United States",Feral but very friendly.,,1995-04-18,47.5457283876999,-122.94776345401601,https://inaturalist-open-data.s3.amazonaws.com/photos/347541452/original.jpg,Domesticated Dog,/content/drive/MyDrive/SU/dog-compass/dog-data/Domesticated Dog/photos/197339326-1995-04-18.jpg
197339245,"April 19th, 1995","Lacey, United States",Feral but friendly.,,1995-04-19,46.98925281696368,-122.85621204536416,https://inaturalist-open-data.s3.amazonaws.com/photos/347541382/original.jpg,Domesticated Dog,/content/drive/MyDrive/SU/dog-compass/dog-data/Domesticated Dog/photos/197339245-1995-04-19.jpg
197319053,2024/01/21 08:58,"Woods Creek, United States",,,2024-01-21,47.92227495927974,-121.94091349845291,https://inaturalist-open-data.s3.amazonaws.com/photos/347502343/original.jpg,Domesticated Dog,/content/drive/MyDrive/SU/dog-compass/dog-data/Domesticated Dog/photos/197319053-2024-01-21.jpg
197315277,2024/01/21 3:27 PM,"Anacortes, United States",,,2024-01-21,48.46171421033253,-122.67125215305617,https://inaturalist-open-data.s3.amazonaws.com/photos/347495600/original.jpeg,Domesticated Dog,/content/drive/MyDrive/SU/dog-compass/dog-data/Domesticated Dog/photos/197315277-2024-01-21.jpg
197313337,2024/01/22 7:47 AM,"Darrington, United States",,,2024-01-22,48.040577723043825,-121.24640773816758,https://inaturalist-open-data.s3.amazonaws.com/photos/347492038/original.jpg,Domesticated Dog,/content/drive/MyDrive/SU/dog-compass/dog-data/Domesticated Dog/photos/197313337-2024-01-22.jpg
197302428,2018/12/14 9:48 AM,"Tanner, United States",,,2018-12-14,47.55399358557327,-121.6952281870381,https://static.inaturalist.org/photos/347468629/original.jpeg,Domesticated Dog,/content/drive/MyDrive/SU/dog-compass/dog-data/Domesticated Dog/photos/197302428-2018-12-14.jpg
197274171,2024-01-22 09:19:24+08:00,"Sultan, United States",,,2024-01-22,47.89488864675164,-121.80389537769925,https://inaturalist-open-data.s3.amazonaws.com/photos/347410830/original.jpg,Domesticated Dog,/content/drive/MyDrive/SU/dog-compass/dog-data/Domesticated Dog/photos/197274171-2024-01-22.jpg
197274097,2024/01/21 11:28 AM,"Tanner, United States",,,2024-01-21,47.52633909460383,-121.31354176588965,https://inaturalist-open-data.s3.amazonaws.com/photos/347404033/original.jpeg,Domesticated Dog,/content/drive/MyDrive/SU/dog-compass/dog-data/Domesticated Dog/photos/197274097-2024-01-21.jpg
197266574,2024/01/08 2:00 PM,"Seabeck, United States",,,2024-01-08,47.83329435026067,-122.97316321269666,https://inaturalist-open-data.s3.amazonaws.com/photos/347389796/original.jpeg,Domesticated Dog,/content/drive/MyDrive/SU/dog-compass/dog-data/Domesticated Dog/photos/197266574-2024-01-08.jpg
197258348,2022/06/13 10:21,"Cle Elum, United States",,,2022-06-13,47.57837617237407,-121.22962814902122,https://inaturalist-open-data.s3.amazonaws.com/photos/347377235/original.jpg,Domesticated Dog,/content/drive/MyDrive/SU/dog-compass/dog-data/Domesticated Dog/photos/197258348-2022-06-13.jpg
197257529,2019/09/08 15:56,"Cottage Lake, United States",,,2019-09-08,47.761389123187826,-122.10697842596196,https://inaturalist-open-data.s3.amazonaws.com/photos/347375842/original.jpg,Domesticated Dog,/content/drive/MyDrive/SU/dog-compass/dog-data/Domesticated Dog/photos/197257529-2019-09-08.jpg
197251579,2024-01-21 13:32:08,"Lea Hill, United States",coyote dog hybrid?,,2024-01-21,47.25542253815928,-122.15914349974707,https://inaturalist-open-data.s3.amazonaws.com/photos/347365047/original.jpeg,Domesticated Dog,/content/drive/MyDrive/SU/dog-compass/dog-data/Domesticated Dog/photos/197251579-2024-01-21.jpg
197251011,2024-01-21 20:19:18,"Darrington, United States",,,2024-01-21,48.704865463769394,-121.37160151677799,https://inaturalist-open-data.s3.amazonaws.com/photos/347364135/original.jpeg,Domesticated Dog,/content/drive/MyDrive/SU/dog-compass/dog-data/Domesticated Dog/photos/197251011-2024-01-21.jpg
197250381,"April 19th, 1991","Darrington, United States","Feral dogs, not pets, but very friendly.",,1991-04-19,48.11510268039956,-121.41998579752251,https://inaturalist-open-data.s3.amazonaws.com/photos/347362518/original.jpg,Domesticated Dog,/content/drive/MyDrive/SU/dog-compass/dog-data/Domesticated Dog/photos/197250381-1991-04-19.jpg
197242229,2024/01/21 16:06,"Camano, United States",,,2024-01-21,48.23207067348356,-122.49181876680666,https://static.inaturalist.org/photos/347345783/original.jpg,Domesticated Dog,/content/drive/MyDrive/SU/dog-compass/dog-data/Domesticated Dog/photos/197242229-2024-01-21.jpg
197237836,2024/01/21 10:25 AM,"Darrington, United States",,,2024-01-21,48.0299170286304,-121.19336598964563,https://inaturalist-open-data.s3.amazonaws.com/photos/347334999/original.jpg,Domesticated Dog,/content/drive/MyDrive/SU/dog-compass/dog-data/Domesticated Dog/photos/197237836-2024-01-21.jpg
197237833,2024/01/21 10:25 AM,"Granite Falls, United States",,,2024-01-21,48.162361888587064,-121.95881265980343,https://inaturalist-open-data.s3.amazonaws.com/photos/347334941/original.jpg,Domesticated Dog,/content/drive/MyDrive/SU/dog-compass/dog-data/Domesticated Dog/photos/197237833-2024-01-21.jpg
197237832,2024/01/21 10:25 AM,"Sequim, United States",,,2024-01-21,48.1212689159958,-123.01967842537772,https://inaturalist-open-data.s3.amazonaws.com/photos/347334963/original.jpg,Domesticated Dog,/content/drive/MyDrive/SU/dog-compass/dog-data/Domesticated Dog/photos/197237832-2024-01-21.jpg
197231326,2024-01-16 11:40:03-05:00,"Ault Field, United States",,,2024-01-16,48.364076117523624,-122.871045510148,https://inaturalist-open-data.s3.amazonaws.com/photos/347323877/original.jpg,Domesticated Dog,/content/drive/MyDrive/SU/dog-compass/dog-data/Domesticated Dog/photos/197231326-2024-01-16.jpg
197228357,2024/01/20 12:28,"Smokey Point, United States",,,2024-01-20,48.216792703641055,-122.26118171107765,https://inaturalist-open-data.s3.amazonaws.com/photos/347316880/original.jpeg,Domesticated Dog,/content/drive/MyDrive/SU/dog-compass/dog-data/Domesticated Dog/photos/197228357-2024-01-20.jpg
197225737,2024-01-21 11:09:58-03:00,"Darrington, United States","Gorda se llama
",,2024-01-21,47.99465673501622,-121.18212139193082,https://static.inaturalist.org/photos/347313330/original.jpg,Domesticated Dog,/content/drive/MyDrive/SU/dog-compass/dog-data/Domesticated Dog/photos/197225737-2024-01-21.jpg
197221952,2024/01/01 5:33 PM,"Darrington, United States",Exif_JPEG_420,,2024-01-01,48.13877922403175,-121.27327270124916,https://inaturalist-open-data.s3.amazonaws.com/photos/347304592/original.jpg,Domesticated Dog,/content/drive/MyDrive/SU/dog-compass/dog-data/Domesticated Dog/photos/197221952-2024-01-01.jpg
197221951,2024/01/01 4:42 PM,"Peaceful Valley, United States",Exif_JPEG_420,,2024-01-01,48.70267907621559,-121.74867204560648,https://inaturalist-open-data.s3.amazonaws.com/photos/347304577/original.jpg,Domesticated Dog,/content/drive/MyDrive/SU/dog-compass/dog-data/Domesticated Dog/photos/197221951-2024-01-01.jpg
197215145,2023/12/25 5:10 PM,"Tanner, United States",Exif_JPEG_420,,2023-12-25,47.34233682836692,-121.43477173564999,https://inaturalist-open-data.s3.amazonaws.com/photos/347292004/original.jpg,Domesticated Dog,/content/drive/MyDrive/SU/dog-compass/dog-data/Domesticated Dog/photos/197215145-2023-12-25.jpg
197211113,2020-09-02 17:04:35,"Big Lake, United States",,,2020-09-02,48.3999797339116,-122.08366284213676,https://inaturalist-open-data.s3.amazonaws.com/photos/347284516/original.jpeg,Domesticated Dog,/content/drive/MyDrive/SU/dog-compass/dog-data/Domesticated Dog/photos/197211113-2020-09-02.jpg
197194346,2023-12-19 17:55:48,"Burien, United States",,,2023-12-19,47.466208483111146,-122.32846706855838,https://static.inaturalist.org/photos/347248887/original.jpeg,Domesticated Dog,/content/drive/MyDrive/SU/dog-compass/dog-data/Domesticated Dog/photos/197194346-2023-12-19.jpg
197181917,2023/12/21 9:09 AM,"Port Hadlock-Irondale, United States",,,2023-12-21,47.94803967459556,-122.87901545388394,https://inaturalist-open-data.s3.amazonaws.com/photos/347221611/original.jpeg,Domesticated Dog,/content/drive/MyDrive/SU/dog-compass/dog-data/Domesticated Dog/photos/197181917-2023-12-21.jpg
197181281,2018/10/12 1:19 PM,"Coupeville, United States",,,2018-10-12,48.180021614040484,-122.69525213350101,https://static.inaturalist.org/photos/347221665/original.jpeg,Domesticated Dog,/content/drive/MyDrive/SU/dog-compass/dog-data/Domesticated Dog/photos/197181281-2018-10-12.jpg
197180955,2024-01-19 13:37:04,"Clear Lake, United States",,,2024-01-19,48.47296211861313,-122.21614033133119,https://inaturalist-open-data.s3.amazonaws.com/photos/347221500/original.jpeg,Domesticated Dog,/content/drive/MyDrive/SU/dog-compass/dog-data/Domesticated Dog/photos/197180955-2024-01-19.jpg
197177925,"April 19th, 1992","Enumclaw, United States","Feral but very friendly.

 Near L'Ansecoy Beach.",,1992-04-19,47.21463869934498,-121.79078621963004,https://inaturalist-open-data.s3.amazonaws.com/photos/347215136/original.jpg,Domesticated Dog,/content/drive/MyDrive/SU/dog-compass/dog-data/Domesticated Dog/photos/197177925-1992-04-19.jpg
197177865,17 April 1991,"Darrington, United States","Feral. 

Buster and Chloe liked to dig out a ghost crab on the beach and then try to terrorize it, although they were also scared because they knew they were running the risk of being pinched on the nose!",,1991-04-17,48.71098968514712,-121.0992544848316,https://inaturalist-open-data.s3.amazonaws.com/photos/347214964/original.jpg,Domesticated Dog,/content/drive/MyDrive/SU/dog-compass/dog-data/Domesticated Dog/photos/197177865-1991-04-17.jpg
197175776,2023-12-30 09:35:43-06:00,"Bothell, United States",,,2023-12-30,47.78831360488639,-122.21538154684342,https://inaturalist-open-data.s3.amazonaws.com/photos/347210857/original.jpg,Domesticated Dog,/content/drive/MyDrive/SU/dog-compass/dog-data/Domesticated Dog/photos/197175776-2023-12-30.jpg
197159828,2013/05/15,"Darrington, United States",,,2013-05-15,48.62757580276472,-121.13703567481383,https://inaturalist-open-data.s3.amazonaws.com/photos/347180149/original.jpg,Domesticated Dog,/content/drive/MyDrive/SU/dog-compass/dog-data/Domesticated Dog/photos/197159828-2013-05-15.jpg
197127601,2024-01-20 08:59:55+03:00,"Allyn, United States",,,2024-01-20,47.31432345921135,-122.9501302320827,https://inaturalist-open-data.s3.amazonaws.com/photos/347115112/original.jpg,Domesticated Dog,/content/drive/MyDrive/SU/dog-compass/dog-data/Domesticated Dog/photos/197127601-2024-01-20.jpg
197125761,2024/01/05 16:23,"Darrington, United States","Aborigines claim that these dogs are a breed (subspecies) of the dogs of Phu Quoc Island. Wild dogs in Yangon (Myanmar), for example, are monotonously red, like a Dingo dog, without black stripes.",,2024-01-05,48.42534797185697,-121.79229764445654,https://inaturalist-open-data.s3.amazonaws.com/photos/347111265/original.jpg,Domesticated Dog,/content/drive/MyDrive/SU/dog-compass/dog-data/Domesticated Dog/photos/197125761-2024-01-05.jpg
197113392,2024-01-19 13:26:38,"Cle Elum, United States",,,2024-01-19,47.50498801297758,-121.0810698031193,https://static.inaturalist.org/photos/347086718/original.jpeg,Domesticated Dog,/content/drive/MyDrive/SU/dog-compass/dog-data/Domesticated Dog/photos/197113392-2024-01-19.jpg
197107315,2024-01-20 09:56:04+08:00,"Sedro-Woolley, United States",,,2024-01-20,48.6437592180067,-122.15604819023555,https://inaturalist-open-data.s3.amazonaws.com/photos/347075572/original.jpg,Domesticated Dog,/content/drive/MyDrive/SU/dog-compass/dog-data/Domesticated Dog/photos/197107315-2024-01-20.jpg
197088151,2024-01-19 22:04:50,"Gold Bar, United States",,,2024-01-19,47.702086192661675,-121.23019080306709,https://static.inaturalist.org/photos/347034235/original.jpeg,Domesticated Dog,/content/drive/MyDrive/SU/dog-compass/dog-data/Domesticated Dog/photos/197088151-2024-01-19.jpg
197035931,2024-01-19 10:28:49+08:00,"Cle Elum, United States",,,2024-01-19,47.52590797037816,-121.17450048008463,https://inaturalist-open-data.s3.amazonaws.com/photos/346930926/original.jpg,Domesticated Dog,/content/drive/MyDrive/SU/dog-compass/dog-data/Domesticated Dog/photos/197035931-2024-01-19.jpg
197035912,2024-01-19 10:21:13+08:00,"Anacortes, United States",,,2024-01-19,48.41574117178454,-122.56158164407694,https://inaturalist-open-data.s3.amazonaws.com/photos/346930918/original.jpg,Domesticated Dog,/content/drive/MyDrive/SU/dog-compass/dog-data/Domesticated Dog/photos/197035912-2024-01-19.jpg
197035893,2024-01-19 10:20:27+08:00,"Darrington, United States",,,2024-01-19,48.47855447082927,-121.84242292540189,https://inaturalist-open-data.s3.amazonaws.com/photos/346930907/original.jpg,Domesticated Dog,/content/drive/MyDrive/SU/dog-compass/dog-data/Domesticated Dog/photos/197035893-2024-01-19.jpg
197033990,2024/01/16 9:25 AM,"Cle Elum, United States",,,2024-01-16,47.52983300209017,-121.27212460159654,https://inaturalist-open-data.s3.amazonaws.com/photos/346913383/original.jpeg,Domesticated Dog,/content/drive/MyDrive/SU/dog-compass/dog-data/Domesticated Dog/photos/197033990-2024-01-16.jpg
197028953,2024/01/17 1:52 PM,"Granite Falls, United States","Saddleback Butte State Park
These two dogs saw me from clear across the park and came running towards me with a third one that I didn't see at first. One of them had a collar and tag. While they were friendly, they followed me everywhere I went so I had to leave as I just couldn't concentrate on photography with them following me, including to my car. Appear well fed so not sure if someone just lets them roam free??",,2024-01-17,48.16130889788554,-121.80350088880138,https://static.inaturalist.org/photos/346915799/original.jpg,Domesticated Dog,/content/drive/MyDrive/SU/dog-compass/dog-data/Domesticated Dog/photos/197028953-2024-01-17.jpg
197026584,2024-01-18 16:23:00,"Tanner, United States",,,2024-01-18,47.378679452170545,-121.34830384250228,https://static.inaturalist.org/photos/346911293/original.jpeg,Domesticated Dog,/content/drive/MyDrive/SU/dog-compass/dog-data/Domesticated Dog/photos/197026584-2024-01-18.jpg
197019918,2024-01-19 06:31:32+08:00,"Enumclaw, United States",,,2024-01-19,47.23056789092482,-121.79852972548083,https://inaturalist-open-data.s3.amazonaws.com/photos/346897360/original.jpg,Domesticated Dog,/content/drive/MyDrive/SU/dog-compass/dog-data/Domesticated Dog/photos/197019918-2024-01-19.jpg
197019863,2024-01-19 06:30:49+08:00,"Darrington, United States",,,2024-01-19,48.35501353388784,-121.71014649836164,https://inaturalist-open-data.s3.amazonaws.com/photos/346897199/original.jpg,Domesticated Dog,/content/drive/MyDrive/SU/dog-compass/dog-data/Domesticated Dog/photos/197019863-2024-01-19.jpg
196999621,2024-01-15 05:45:00,"Clear Lake, United States",,,2024-01-15,48.43138418178537,-122.0064336895603,https://inaturalist-open-data.s3.amazonaws.com/photos/346856883/original.jpeg,Domesticated Dog,/content/drive/MyDrive/SU/dog-compass/dog-data/Domesticated Dog/photos/196999621-2024-01-15.jpg
196998677,2024/01/18 16:47,"Burlington, United States",,,2024-01-18,48.51057778212896,-122.43242864668693,https://inaturalist-open-data.s3.amazonaws.com/photos/346854097/original.jpeg,Domesticated Dog,/content/drive/MyDrive/SU/dog-compass/dog-data/Domesticated Dog/photos/196998677-2024-01-18.jpg
196998674,2024/01/18 16:36,"Cle Elum, United States",,,2024-01-18,47.609900335611265,-121.2098918951674,https://inaturalist-open-data.s3.amazonaws.com/photos/346853822/original.jpeg,Domesticated Dog,/content/drive/MyDrive/SU/dog-compass/dog-data/Domesticated Dog/photos/196998674-2024-01-18.jpg
196992419,2024-01-07 22:21:47+07:00,"Three Lakes, United States",,,2024-01-07,47.922710081690774,-122.02612852564556,https://static.inaturalist.org/photos/346841974/original.jpg,Domesticated Dog,/content/drive/MyDrive/SU/dog-compass/dog-data/Domesticated Dog/photos/196992419-2024-01-07.jpg
196990184,2024/01/18 4:20 PM,"Sequim, United States",,,2024-01-18,47.86733996575085,-123.04618335694126,https://inaturalist-open-data.s3.amazonaws.com/photos/346837342/original.jpeg,Domesticated Dog,/content/drive/MyDrive/SU/dog-compass/dog-data/Domesticated Dog/photos/196990184-2024-01-18.jpg
196990183,2024/01/18 4:17 PM,"Anacortes, United States",,,2024-01-18,48.58190111597178,-122.48726752727927,https://inaturalist-open-data.s3.amazonaws.com/photos/346837339/original.jpeg,Domesticated Dog,/content/drive/MyDrive/SU/dog-compass/dog-data/Domesticated Dog/photos/196990183-2024-01-18.jpg
196978832,2024-01-18 12:53:36+03:30,"Wilderness Rim, United States",,,2024-01-18,47.394145922865626,-121.82379446993555,https://inaturalist-open-data.s3.amazonaws.com/photos/346815468/original.jpg,Domesticated Dog,/content/drive/MyDrive/SU/dog-compass/dog-data/Domesticated Dog/photos/196978832-2024-01-18.jpg
196968246,2024-01-10 15:05:11+07:00,"Home, United States",,,2024-01-10,47.2461725337778,-122.73274089885561,https://inaturalist-open-data.s3.amazonaws.com/photos/346793388/original.jpg,Domesticated Dog,/content/drive/MyDrive/SU/dog-compass/dog-data/Domesticated Dog/photos/196968246-2024-01-10.jpg
196966281,2023-12-29 14:04:38,"Cle Elum, United States","Feral dogs, sleeping on the street.",,2023-12-29,47.069812598058974,-121.1255969602177,https://inaturalist-open-data.s3.amazonaws.com/photos/346789198/original.jpeg,Domesticated Dog,/content/drive/MyDrive/SU/dog-compass/dog-data/Domesticated Dog/photos/196966281-2023-12-29.jpg
196953042,2024-01-18 07:33:08+07:00,"Mount Vernon, United States",,,2024-01-18,48.433389523767296,-122.32964165526198,https://inaturalist-open-data.s3.amazonaws.com/photos/346759925/original.jpg,Domesticated Dog,/content/drive/MyDrive/SU/dog-compass/dog-data/Domesticated Dog/photos/196953042-2024-01-18.jpg
196916257,2024/01/17 7:10 AM,"Buckley, United States",,,2024-01-17,47.04055465992472,-121.94068736415306,https://inaturalist-open-data.s3.amazonaws.com/photos/346685694/original.jpeg,Domesticated Dog,/content/drive/MyDrive/SU/dog-compass/dog-data/Domesticated Dog/photos/196916257-2024-01-17.jpg
196906908,2024-01-17 13:25:21,"Snoqualmie, United States",,,2024-01-17,47.51035493604294,-121.86599874311108,https://inaturalist-open-data.s3.amazonaws.com/photos/346667024/original.jpeg,Domesticated Dog,/content/drive/MyDrive/SU/dog-compass/dog-data/Domesticated Dog/photos/196906908-2024-01-17.jpg
196896257,2024/01/15 3:50 PM,"Friday Harbor, United States",,,2024-01-15,48.658267572130235,-122.97118143766514,https://inaturalist-open-data.s3.amazonaws.com/photos/346644918/original.jpeg,Domesticated Dog,/content/drive/MyDrive/SU/dog-compass/dog-data/Domesticated Dog/photos/196896257-2024-01-15.jpg
196883569,2023/07/09 09:37,"Bonney Lake, United States",,,2023-07-09,47.162549214840276,-122.18952888209733,https://inaturalist-open-data.s3.amazonaws.com/photos/346617930/original.jpg,Domesticated Dog,/content/drive/MyDrive/SU/dog-compass/dog-data/Domesticated Dog/photos/196883569-2023-07-09.jpg
196878203,2024-01-15,"Leavenworth, United States",,,2024-01-15,47.86172053283907,-121.07483657751374,https://inaturalist-open-data.s3.amazonaws.com/photos/346608078/original.jpeg,Domesticated Dog,/content/drive/MyDrive/SU/dog-compass/dog-data/Domesticated Dog/photos/196878203-2024-01-15.jpg
196872989,2024/01/15 12:23 AM,"Cathcart, United States",,,2024-01-15,47.820757000891206,-122.03346622273041,https://inaturalist-open-data.s3.amazonaws.com/photos/346596610/original.jpeg,Domesticated Dog,/content/drive/MyDrive/SU/dog-compass/dog-data/Domesticated Dog/photos/196872989-2024-01-15.jpg
196866090,2024-01-16 15:13:55,"Darrington, United States",,,2024-01-16,48.13905126643536,-121.10620772287025,https://inaturalist-open-data.s3.amazonaws.com/photos/346583292/original.jpeg,Domesticated Dog,/content/drive/MyDrive/SU/dog-compass/dog-data/Domesticated Dog/photos/196866090-2024-01-16.jpg
196861726,2024-01-17 06:07:52,"Gold Bar, United States",,,2024-01-17,47.92689393930151,-121.34853443461968,https://inaturalist-open-data.s3.amazonaws.com/photos/346575771/original.jpeg,Domesticated Dog,/content/drive/MyDrive/SU/dog-compass/dog-data/Domesticated Dog/photos/196861726-2024-01-17.jpg
196860966,2024-01-16 12:30:20,"Sedro-Woolley, United States",,,2024-01-16,48.52352596631199,-122.10378615126788,https://inaturalist-open-data.s3.amazonaws.com/photos/346573924/original.jpeg,Domesticated Dog,/content/drive/MyDrive/SU/dog-compass/dog-data/Domesticated Dog/photos/196860966-2024-01-16.jpg
196849301,2023/12/31 4:39 PM,"Clear Lake, United States",,,2023-12-31,48.4325840750336,-122.0763906179886,https://inaturalist-open-data.s3.amazonaws.com/photos/346549490/original.jpeg,Domesticated Dog,/content/drive/MyDrive/SU/dog-compass/dog-data/Domesticated Dog/photos/196849301-2023-12-31.jpg
196849024,2024-01-16 15:39:43+03:00,"Belfair, United States",,,2024-01-16,47.487448254994966,-123.01390378114392,https://inaturalist-open-data.s3.amazonaws.com/photos/346550287/original.jpg,Domesticated Dog,/content/drive/MyDrive/SU/dog-compass/dog-data/Domesticated Dog/photos/196849024-2024-01-16.jpg
196848756,2024-01-16 08:17:58-05:00,"Darrington, United States",,,2024-01-16,48.38358845731734,-121.20050766504593,https://inaturalist-open-data.s3.amazonaws.com/photos/346549613/original.jpg,Domesticated Dog,/content/drive/MyDrive/SU/dog-compass/dog-data/Domesticated Dog/photos/196848756-2024-01-16.jpg
196847519,2024-01-16 07:57:41-05:00,"Darrington, United States",,"dog, feral, Peru, Huacho",2024-01-16,48.011661952435404,-121.39876360239852,https://inaturalist-open-data.s3.amazonaws.com/photos/346546984/original.jpg,Domesticated Dog,/content/drive/MyDrive/SU/dog-compass/dog-data/Domesticated Dog/photos/196847519-2024-01-16.jpg
196834398,2023-08-12 14:36:15,"Arlington, United States",,,2023-08-12,48.1998456275497,-122.1062336195108,https://inaturalist-open-data.s3.amazonaws.com/photos/346520422/original.jpeg,Domesticated Dog,/content/drive/MyDrive/SU/dog-compass/dog-data/Domesticated Dog/photos/196834398-2023-08-12.jpg
196833650,2024/01/16 3:38 PM,"Arlington Heights, United States",the person come to give the stray dogs food this one take the bag and like to eat in usual location,,2024-01-16,48.22020077376837,-122.07072540868565,https://inaturalist-open-data.s3.amazonaws.com/photos/346518305/original.jpeg,Domesticated Dog,/content/drive/MyDrive/SU/dog-compass/dog-data/Domesticated Dog/photos/196833650-2024-01-16.jpg
196822916,2023/11/16 12:31 PM,"Wilderness Rim, United States",,,2023-11-16,47.28334612196476,-121.78984836408367,https://inaturalist-open-data.s3.amazonaws.com/photos/346496092/original.jpg,Domesticated Dog,/content/drive/MyDrive/SU/dog-compass/dog-data/Domesticated Dog/photos/196822916-2023-11-16.jpg
196816534,2024-01-13 13:09:26,"Darrington, United States",Notice the chain near it's body. I'd guess that's what killed it.,,2024-01-13,48.66472535790021,-121.07855095714702,https://inaturalist-open-data.s3.amazonaws.com/photos/346552949/original.jpeg,Domesticated Dog,/content/drive/MyDrive/SU/dog-compass/dog-data/Domesticated Dog/photos/196816534-2024-01-13.jpg
196816306,2022-02-24 01:30:31-05:00,"Woods Creek, United States",Street pup.,,2022-02-24,47.94890302482746,-121.92599868397333,https://inaturalist-open-data.s3.amazonaws.com/photos/346483908/original.jpg,Domesticated Dog,/content/drive/MyDrive/SU/dog-compass/dog-data/Domesticated Dog/photos/196816306-2022-02-24.jpg
196808424,2024/01/08 7:33 AM,"Lochsloy, United States",,,2024-01-08,48.09199191550866,-122.03895255449045,https://inaturalist-open-data.s3.amazonaws.com/photos/346463945/original.jpg,Domesticated Dog,/content/drive/MyDrive/SU/dog-compass/dog-data/Domesticated Dog/photos/196808424-2024-01-08.jpg
196795845,2000/04/21 13:17,"Cle Elum, United States",,,2000-04-21,46.91293462422385,-121.41092168898507,https://inaturalist-open-data.s3.amazonaws.com/photos/346437982/original.jpeg,Domesticated Dog,/content/drive/MyDrive/SU/dog-compass/dog-data/Domesticated Dog/photos/196795845-2000-04-21.jpg
196785619,2024-01-10 14:19:10,"Alderwood Manor, United States",,,2024-01-10,47.803516266975215,-122.28706216917969,https://inaturalist-open-data.s3.amazonaws.com/photos/346420831/original.jpeg,Domesticated Dog,/content/drive/MyDrive/SU/dog-compass/dog-data/Domesticated Dog/photos/196785619-2024-01-10.jpg
196777866,2024-01-15 12:49:56+02:00,"Leavenworth, United States",stray dog sleeping on pavement road ,,2024-01-15,47.8594802505372,-121.11827979034398,https://static.inaturalist.org/photos/346405704/original.jpg,Domesticated Dog,/content/drive/MyDrive/SU/dog-compass/dog-data/Domesticated Dog/photos/196777866-2024-01-15.jpg
196760146,2024/01/15 14:06,"Lakeland South, United States",,,2024-01-15,47.27350450911383,-122.27940779001871,https://inaturalist-open-data.s3.amazonaws.com/photos/346370720/original.jpeg,Domesticated Dog,/content/drive/MyDrive/SU/dog-compass/dog-data/Domesticated Dog/photos/196760146-2024-01-15.jpg
196747668,2024-01-15 10:27:43,"Port Ludlow, United States",,"T01228, T01229, T01234, T02475, T02476, T02477, T01396, T01675, T01676, T00273, T04736, –æ–ø–¥–≤, —Å–ø–æ—Ä, –ö–¢, –†–°–ú, –ù111–ù, –í–¢, T01356, R0016R, G0053G, G0016G, G0017G, KV0207, G0015G, KV0123, KV0156, –ù_lefebvremax, –ü, –ù_nandannsreejith-snowshark182-india, –ù_arielflorentino",2024-01-15,47.90621413815137,-122.79992397573038,https://inaturalist-open-data.s3.amazonaws.com/photos/346347120/original.jpeg,Domesticated Dog,/content/drive/MyDrive/SU/dog-compass/dog-data/Domesticated Dog/photos/196747668-2024-01-15.jpg
196747591,2024/01/15 10:14 AM,"Darrington, United States",,,2024-01-15,48.70942643609772,-121.3478582428301,https://inaturalist-open-data.s3.amazonaws.com/photos/346346135/original.jpeg,Domesticated Dog,/content/drive/MyDrive/SU/dog-compass/dog-data/Domesticated Dog/photos/196747591-2024-01-15.jpg
196742465,2023/11/20 6:01 PM,"Anacortes, United States",,,2023-11-20,48.67168130125572,-122.79390505720181,https://inaturalist-open-data.s3.amazonaws.com/photos/346333004/original.jpeg,Domesticated Dog,/content/drive/MyDrive/SU/dog-compass/dog-data/Domesticated Dog/photos/196742465-2023-11-20.jpg
196739298,2024-01-15 11:02:17+07:00,"Wilderness Rim, United States",,,2024-01-15,47.1054559442483,-121.47896268154942,https://inaturalist-open-data.s3.amazonaws.com/photos/346329309/original.jpg,Domesticated Dog,/content/drive/MyDrive/SU/dog-compass/dog-data/Domesticated Dog/photos/196739298-2024-01-15.jpg
196732162,2024/01/14 13:22,"Port Hadlock-Irondale, United States","–î–∏–∫–∏–µ, –∂–∏–≤—É—Ç –≤ –ª–µ—Å—É",,2024-01-14,48.102489239140404,-122.88350154958249,https://inaturalist-open-data.s3.amazonaws.com/photos/346312488/original.jpeg,Domesticated Dog,/content/drive/MyDrive/SU/dog-compass/dog-data/Domesticated Dog/photos/196732162-2024-01-14.jpg
196714854,2018/05/27 9:07 AM,"Hansville, United States",heard howling with a typical dingo howl. One of three individuals seen in the pack.,,2018-05-27,47.9127311938988,-122.56567687886853,https://inaturalist-open-data.s3.amazonaws.com/photos/346277307/original.jpg,Domesticated Dog,/content/drive/MyDrive/SU/dog-compass/dog-data/Domesticated Dog/photos/196714854-2018-05-27.jpg
196687494,2024-01-03 18:27:34,"Port Ludlow, United States",Wild in the city. I was told not to pet :(,,2024-01-03,47.8987455678316,-122.68803702837845,https://inaturalist-open-data.s3.amazonaws.com/photos/346223928/original.jpeg,Domesticated Dog,/content/drive/MyDrive/SU/dog-compass/dog-data/Domesticated Dog/photos/196687494-2024-01-03.jpg
196674651,2024-01-13 13:35:19,"Cle Elum, United States",,,2024-01-13,47.3589711898371,-121.21243750429505,https://inaturalist-open-data.s3.amazonaws.com/photos/346200365/original.jpeg,Domesticated Dog,/content/drive/MyDrive/SU/dog-compass/dog-data/Domesticated Dog/photos/196674651-2024-01-13.jpg
196671469,2024-01-14 18:15:26+07:00,"Browns Point, United States",,,2024-01-14,47.30873817511298,-122.46736121119437,https://static.inaturalist.org/photos/346197589/original.jpg,Domesticated Dog,/content/drive/MyDrive/SU/dog-compass/dog-data/Domesticated Dog/photos/196671469-2024-01-14.jpg
196646256,2024-01-14 13:57:38+07:00,"Martha Lake, United States",,,2024-01-14,47.84537984478756,-122.22220723438173,https://static.inaturalist.org/photos/346142970/original.jpg,Domesticated Dog,/content/drive/MyDrive/SU/dog-compass/dog-data/Domesticated Dog/photos/196646256-2024-01-14.jpg
196646060,2024-01-14 14:45:35+07:00,"Wilderness Rim, United States",,,2024-01-14,47.238015734346185,-121.76176937526147,https://inaturalist-open-data.s3.amazonaws.com/photos/346142640/original.jpg,Domesticated Dog,/content/drive/MyDrive/SU/dog-compass/dog-data/Domesticated Dog/photos/196646060-2024-01-14.jpg
196645514,2024-01-14 14:16:31+07:00,"Tumwater, United States",,,2024-01-14,46.92725020016628,-122.96789114616719,https://static.inaturalist.org/photos/346141578/original.jpg,Domesticated Dog,/content/drive/MyDrive/SU/dog-compass/dog-data/Domesticated Dog/photos/196645514-2024-01-14.jpg
196635646,2023/10/31 9:36 AM,"Allyn, United States",,,2023-10-31,47.32196307585956,-122.95965464370059,https://inaturalist-open-data.s3.amazonaws.com/photos/346119541/original.jpeg,Domesticated Dog,/content/drive/MyDrive/SU/dog-compass/dog-data/Domesticated Dog/photos/196635646-2023-10-31.jpg
196591663,2024-01-14 09:21:22,"Fall City, United States",,,2024-01-14,47.59412680686575,-121.84534320097913,https://inaturalist-open-data.s3.amazonaws.com/photos/346074970/original.jpeg,Domesticated Dog,/content/drive/MyDrive/SU/dog-compass/dog-data/Domesticated Dog/photos/196591663-2024-01-14.jpg
196591540,2024-01-13 12:57:49-06:00,"Gold Bar, United States",,,2024-01-13,47.83812291334709,-121.35481438283779,https://inaturalist-open-data.s3.amazonaws.com/photos/346074728/original.jpg,Domesticated Dog,/content/drive/MyDrive/SU/dog-compass/dog-data/Domesticated Dog/photos/196591540-2024-01-13.jpg
196575083,2007/08/04 11:56 AM,"Anacortes, United States","Feral Dogs at Negomba Beach, Sri Lanka. August 2007.",,2007-08-04,48.480269565907776,-122.69645728014832,https://inaturalist-open-data.s3.amazonaws.com/photos/346052835/original.jpg,Domesticated Dog,/content/drive/MyDrive/SU/dog-compass/dog-data/Domesticated Dog/photos/196575083-2007-08-04.jpg
196545811,2024/01/13 1:47 PM,"Cle Elum, United States",,,2024-01-13,47.05944916454064,-121.20862997468168,https://inaturalist-open-data.s3.amazonaws.com/photos/346023090/original.jpeg,Domesticated Dog,/content/drive/MyDrive/SU/dog-compass/dog-data/Domesticated Dog/photos/196545811-2024-01-13.jpg
196524259,2024-01-13 18:13:29+03:00,"Darrington, United States",,,2024-01-13,48.478997552188794,-121.69985127888675,https://inaturalist-open-data.s3.amazonaws.com/photos/345996721/original.jpg,Domesticated Dog,/content/drive/MyDrive/SU/dog-compass/dog-data/Domesticated Dog/photos/196524259-2024-01-13.jpg
196504512,2024-01-13 15:20:40,"Cle Elum, United States",,,2024-01-13,46.902778644365725,-121.18949449193887,https://inaturalist-open-data.s3.amazonaws.com/photos/345980672/original.jpeg,Domesticated Dog,/content/drive/MyDrive/SU/dog-compass/dog-data/Domesticated Dog/photos/196504512-2024-01-13.jpg
196504290,2024-01-13 14:01:48+10:00,"Cle Elum, United States",,,2024-01-13,47.08889697302083,-121.19873571284958,https://inaturalist-open-data.s3.amazonaws.com/photos/345980143/original.jpg,Domesticated Dog,/content/drive/MyDrive/SU/dog-compass/dog-data/Domesticated Dog/photos/196504290-2024-01-13.jpg
196499224,2024-01-13 16:23:18,"Darrington, United States",,,2024-01-13,48.42858176043644,-121.56080055933504,https://static.inaturalist.org/photos/345969787/original.jpeg,Domesticated Dog,/content/drive/MyDrive/SU/dog-compass/dog-data/Domesticated Dog/photos/196499224-2024-01-13.jpg
196494951,2024-01-13 11:49:26+03:00,"Tanglewilde-Thompson Place, United States",,,2024-01-13,46.989999088549325,-122.74154853683294,https://inaturalist-open-data.s3.amazonaws.com/photos/345961323/original.jpg,Domesticated Dog,/content/drive/MyDrive/SU/dog-compass/dog-data/Domesticated Dog/photos/196494951-2024-01-13.jpg
196493885,2024-01-13 11:04:48+03:00,"Arlington Heights, United States",,,2024-01-13,48.32775600452107,-121.88641599842711,https://inaturalist-open-data.s3.amazonaws.com/photos/345958917/original.jpg,Domesticated Dog,/content/drive/MyDrive/SU/dog-compass/dog-data/Domesticated Dog/photos/196493885-2024-01-13.jpg
196493238,2024-01-13 16:26:28,"Tanner, United States",–î–≤–æ—Ä–Ω—è–∂–∫–∞! –ß–∏–ø–∏—Ä–æ–≤–∞–Ω–∞. –ì—Ä–µ–µ—Ç—Å—è :) ,,2024-01-13,47.36692425692236,-121.46172608578493,https://inaturalist-open-data.s3.amazonaws.com/photos/345957428/original.jpeg,Domesticated Dog,/content/drive/MyDrive/SU/dog-compass/dog-data/Domesticated Dog/photos/196493238-2024-01-13.jpg
196477507,2022/05/17 09:15,"Sisco Heights, United States",,,2022-05-17,48.103925742384625,-122.07215216676788,https://inaturalist-open-data.s3.amazonaws.com/photos/345926441/original.jpeg,Domesticated Dog,/content/drive/MyDrive/SU/dog-compass/dog-data/Domesticated Dog/photos/196477507-2022-05-17.jpg
196466924,2024-01-10 16:28:06,"Wilderness Rim, United States",,,2024-01-10,47.1332713663305,-121.66603054261887,https://inaturalist-open-data.s3.amazonaws.com/photos/345904129/original.jpeg,Domesticated Dog,/content/drive/MyDrive/SU/dog-compass/dog-data/Domesticated Dog/photos/196466924-2024-01-10.jpg
196466917,2024-01-10 16:15:57,"Eatonville, United States",,,2024-01-10,46.95077075965416,-122.3207717558896,https://inaturalist-open-data.s3.amazonaws.com/photos/345904108/original.jpeg,Domesticated Dog,/content/drive/MyDrive/SU/dog-compass/dog-data/Domesticated Dog/photos/196466917-2024-01-10.jpg
196442009,2024/01/11 11:50,"Darrington, United States",,,2024-01-11,48.691719832206886,-121.53884179555492,https://inaturalist-open-data.s3.amazonaws.com/photos/345852358/original.jpeg,Domesticated Dog,/content/drive/MyDrive/SU/dog-compass/dog-data/Domesticated Dog/photos/196442009-2024-01-11.jpg
196428111,2024-01-11 10:24:16,"Granite Falls, United States",street dog,,2024-01-11,48.04886968847951,-121.82334942395735,https://inaturalist-open-data.s3.amazonaws.com/photos/345826354/original.jpeg,Domesticated Dog,/content/drive/MyDrive/SU/dog-compass/dog-data/Domesticated Dog/photos/196428111-2024-01-11.jpg
196414430,2024-01-12 11:27:23+05:30,"Belfair, United States",,,2024-01-12,47.496892706473744,-123.00498540546398,https://static.inaturalist.org/photos/345797495/original.jpg,Domesticated Dog,/content/drive/MyDrive/SU/dog-compass/dog-data/Domesticated Dog/photos/196414430-2024-01-12.jpg
196395405,2024-01-11 15:08:05-07:00,"Coupeville, United States",,,2024-01-11,48.23061067078768,-122.7141011701163,https://inaturalist-open-data.s3.amazonaws.com/photos/345757923/original.jpg,Domesticated Dog,/content/drive/MyDrive/SU/dog-compass/dog-data/Domesticated Dog/photos/196395405-2024-01-11.jpg
196389123,2023/01/08 5:31 PM,"Prairie Heights, United States",stray,,2023-01-08,47.16697665716481,-122.10022371973017,https://inaturalist-open-data.s3.amazonaws.com/photos/345741666/original.jpeg,Domesticated Dog,/content/drive/MyDrive/SU/dog-compass/dog-data/Domesticated Dog/photos/196389123-2023-01-08.jpg
196385626,2024-01-11 14:15:33,"Cle Elum, United States",,,2024-01-11,47.35253596309584,-121.21119463088141,https://inaturalist-open-data.s3.amazonaws.com/photos/345736161/original.jpeg,Domesticated Dog,/content/drive/MyDrive/SU/dog-compass/dog-data/Domesticated Dog/photos/196385626-2024-01-11.jpg
196368588,2023/12/30 9:16 AM,"Lakeland South, United States",,,2023-12-30,47.29618305945983,-122.28798458334688,https://inaturalist-open-data.s3.amazonaws.com/photos/345702244/original.jpeg,Domesticated Dog,/content/drive/MyDrive/SU/dog-compass/dog-data/Domesticated Dog/photos/196368588-2023-12-30.jpg
196363258,2024/01/11 1:30 PM,"Bangor Trident Base, United States",,,2024-01-11,47.78657663142263,-122.76519818796783,https://inaturalist-open-data.s3.amazonaws.com/photos/345689660/original.jpeg,Domesticated Dog,/content/drive/MyDrive/SU/dog-compass/dog-data/Domesticated Dog/photos/196363258-2024-01-11.jpg
196356002,2022/05/15 4:14 PM,"Gold Bar, United States",,,2022-05-15,47.736255551097365,-121.55585994947405,https://inaturalist-open-data.s3.amazonaws.com/photos/345676110/original.jpg,Domesticated Dog,/content/drive/MyDrive/SU/dog-compass/dog-data/Domesticated Dog/photos/196356002-2022-05-15.jpg
196333127,2019-07-27 01:43:12-04:00,"Arlington Heights, United States","Street dog.

Sad and dirty. ",,2019-07-27,48.41464504292553,-121.91895450760718,https://inaturalist-open-data.s3.amazonaws.com/photos/345629030/original.jpg,Domesticated Dog,/content/drive/MyDrive/SU/dog-compass/dog-data/Domesticated Dog/photos/196333127-2019-07-27.jpg
196333111,2019-07-27 01:43:51-04:00,"Gold Bar, United States","Street dog.

Friendly but sad. ",,2019-07-27,47.7886352444304,-121.18488417539415,https://inaturalist-open-data.s3.amazonaws.com/photos/345628974/original.jpg,Domesticated Dog,/content/drive/MyDrive/SU/dog-compass/dog-data/Domesticated Dog/photos/196333111-2019-07-27.jpg
196332455,2019-07-27 01:41:55-04:00,"Wilderness Rim, United States","Street dog.

Dirty and very hungry. ",,2019-07-27,47.3910926002903,-121.78865398994863,https://inaturalist-open-data.s3.amazonaws.com/photos/345627544/original.jpg,Domesticated Dog,/content/drive/MyDrive/SU/dog-compass/dog-data/Domesticated Dog/photos/196332455-2019-07-27.jpg
196319954,2023/12/27 11:56 AM,"Tanner, United States",,,2023-12-27,47.654629253691894,-121.67389836698547,https://inaturalist-open-data.s3.amazonaws.com/photos/345601036/original.jpeg,Domesticated Dog,/content/drive/MyDrive/SU/dog-compass/dog-data/Domesticated Dog/photos/196319954-2023-12-27.jpg
196297891,2023-03-07 16:49:12,"Rochester, United States",,,2023-03-07,46.88701813071441,-123.03289424902978,https://static.inaturalist.org/photos/345556272/original.jpeg,Domesticated Dog,/content/drive/MyDrive/SU/dog-compass/dog-data/Domesticated Dog/photos/196297891-2023-03-07.jpg
196281854,2024-01-09 01:28:34+08:00,"Cle Elum, United States",‰∏Ä‰∫õÂèØÁà±ÁöÑÁãó„ÄÇÂ§™Ê£í‰∫ÜÔºÅÔºÅÔºÅmama is on the bottom right and rolled over when I pet her and her puppies are very cute but not so friendly,,2024-01-09,47.135332704148254,-121.37492530123559,https://static.inaturalist.org/photos/345523895/original.jpg,Domesticated Dog,/content/drive/MyDrive/SU/dog-compass/dog-data/Domesticated Dog/photos/196281854-2024-01-09.jpg
196245485,2024-01-10 07:23:13,"Burlington, United States",,,2024-01-10,48.47028329200572,-122.4210977462647,https://static.inaturalist.org/photos/345452088/original.jpeg,Domesticated Dog,/content/drive/MyDrive/SU/dog-compass/dog-data/Domesticated Dog/photos/196245485-2024-01-10.jpg
196230235,2023/04/11 10:51 AM,"Darrington, United States",,,2023-04-11,48.32155638939178,-121.42334001801407,https://inaturalist-open-data.s3.amazonaws.com/photos/345416652/original.jpeg,Domesticated Dog,/content/drive/MyDrive/SU/dog-compass/dog-data/Domesticated Dog/photos/196230235-2023-04-11.jpg
196223882,2024-01-09 10:07:00-06:00,"Crocker, United States",Husky-like face,,2024-01-09,46.929284266546105,-121.9279544295033,https://inaturalist-open-data.s3.amazonaws.com/photos/345408508/original.jpg,Domesticated Dog,/content/drive/MyDrive/SU/dog-compass/dog-data/Domesticated Dog/photos/196223882-2024-01-09.jpg
196203351,2024-01-08 11:34:05,"Lake Morton-Berrydale, United States",,,2024-01-08,47.26990664545073,-122.09983331927457,https://static.inaturalist.org/photos/345367775/original.jpeg,Domesticated Dog,/content/drive/MyDrive/SU/dog-compass/dog-data/Domesticated Dog/photos/196203351-2024-01-08.jpg
196197206,2024-01-09 17:32:15,"Coupeville, United States",,,2024-01-09,48.18691973581493,-122.62576297751147,https://static.inaturalist.org/photos/345355172/original.jpeg,Domesticated Dog,/content/drive/MyDrive/SU/dog-compass/dog-data/Domesticated Dog/photos/196197206-2024-01-09.jpg
196195848,2024-01-09 16:51:56,"Elk Plain, United States",,,2024-01-09,46.94369162181104,-122.36490396607695,https://static.inaturalist.org/photos/345352709/original.jpeg,Domesticated Dog,/content/drive/MyDrive/SU/dog-compass/dog-data/Domesticated Dog/photos/196195848-2024-01-09.jpg
196191266,2024-01-09 11:51:15,"Arlington Heights, United States",,,2024-01-09,48.2242295697496,-122.03104648410667,https://inaturalist-open-data.s3.amazonaws.com/photos/345342832/original.jpeg,Domesticated Dog,/content/drive/MyDrive/SU/dog-compass/dog-data/Domesticated Dog/photos/196191266-2024-01-09.jpg
196179311,2024-01-09 08:51:56,"Sequim, United States",,,2024-01-09,48.140238070294686,-122.94649731875606,https://static.inaturalist.org/photos/345319121/original.jpeg,Domesticated Dog,/content/drive/MyDrive/SU/dog-compass/dog-data/Domesticated Dog/photos/196179311-2024-01-09.jpg
196164868,2024/01/03 11:56 AM,"North Yelm, United States",,,2024-01-03,47.00499080992317,-122.68493756174425,https://inaturalist-open-data.s3.amazonaws.com/photos/345287461/original.jpeg,Domesticated Dog,/content/drive/MyDrive/SU/dog-compass/dog-data/Domesticated Dog/photos/196164868-2024-01-03.jpg
196122035,2022/12/22 17:02,"Crocker, United States",,,2022-12-22,46.94966459699836,-122.0818015349549,https://inaturalist-open-data.s3.amazonaws.com/photos/345203282/original.jpg,Domesticated Dog,/content/drive/MyDrive/SU/dog-compass/dog-data/Domesticated Dog/photos/196122035-2022-12-22.jpg
196122025,2022/12/22 17:02,"Bangor Trident Base, United States",,,2022-12-22,47.67844374552188,-122.72956719285419,https://inaturalist-open-data.s3.amazonaws.com/photos/345203260/original.jpg,Domesticated Dog,/content/drive/MyDrive/SU/dog-compass/dog-data/Domesticated Dog/photos/196122025-2022-12-22.jpg
196113683,2024-01-07 12:07:40,"Darrington, United States",,,2024-01-07,48.356853615828754,-121.74858303636437,https://static.inaturalist.org/photos/345187722/original.jpeg,Domesticated Dog,/content/drive/MyDrive/SU/dog-compass/dog-data/Domesticated Dog/photos/196113683-2024-01-07.jpg
196110880,2023-10-25 09:27:53,"Wilderness Rim, United States",A female was observed died ,,2023-10-25,47.16842078915341,-121.4657048008357,https://inaturalist-open-data.s3.amazonaws.com/photos/345182148/original.jpeg,Domesticated Dog,/content/drive/MyDrive/SU/dog-compass/dog-data/Domesticated Dog/photos/196110880-2023-10-25.jpg
196110772,2023-10-25 06:48:05,"Cle Elum, United States",Dead domestic dog,,2023-10-25,47.53444975383335,-121.2143353406297,https://inaturalist-open-data.s3.amazonaws.com/photos/345182031/original.jpeg,Domesticated Dog,/content/drive/MyDrive/SU/dog-compass/dog-data/Domesticated Dog/photos/196110772-2023-10-25.jpg
196110693,2024/01/03 6:27 PM,"Olympia, United States",Hunter Camera,,2024-01-03,47.124576087594114,-122.89094817038932,https://inaturalist-open-data.s3.amazonaws.com/photos/345181124/original.jpeg,Domesticated Dog,/content/drive/MyDrive/SU/dog-compass/dog-data/Domesticated Dog/photos/196110693-2024-01-03.jpg
196106651,2023/12/29 13:52,"Port Hadlock-Irondale, United States",,,2023-12-29,48.00148040494656,-122.78097310406014,https://inaturalist-open-data.s3.amazonaws.com/photos/345173827/original.jpeg,Domesticated Dog,/content/drive/MyDrive/SU/dog-compass/dog-data/Domesticated Dog/photos/196106651-2023-12-29.jpg
196099837,2024-01-08 15:59:49+10:00,"Gold Bar, United States",,,2024-01-08,47.945300068628555,-121.57139865119701,https://inaturalist-open-data.s3.amazonaws.com/photos/345160751/original.jpg,Domesticated Dog,/content/drive/MyDrive/SU/dog-compass/dog-data/Domesticated Dog/photos/196099837-2024-01-08.jpg
196097977,2023-12-22 11:10:17+07:00,"Gold Bar, United States",‡∏ô‡πâ‡∏≠‡∏á‡πÑ‡∏™‡πâ‡∏Å‡∏£‡∏≠‡∏Å,,2023-12-22,48.02487317849373,-121.67744738115294,https://inaturalist-open-data.s3.amazonaws.com/photos/345155761/original.jpg,Domesticated Dog,/content/drive/MyDrive/SU/dog-compass/dog-data/Domesticated Dog/photos/196097977-2023-12-22.jpg
196078245,2024-01-08 07:25:06+07:00,"Anacortes, United States",,,2024-01-08,48.607929010407865,-122.7293134110904,https://static.inaturalist.org/photos/345115702/original.jpg,Domesticated Dog,/content/drive/MyDrive/SU/dog-compass/dog-data/Domesticated Dog/photos/196078245-2024-01-08.jpg
196077454,2023/12/30 12:03 PM,"Cle Elum, United States",,,2023-12-30,47.06135124299719,-121.39069283829643,https://inaturalist-open-data.s3.amazonaws.com/photos/345106885/original.jpeg,Domesticated Dog,/content/drive/MyDrive/SU/dog-compass/dog-data/Domesticated Dog/photos/196077454-2023-12-30.jpg
196047718,2023/12/27 17:01,"Gold Bar, United States",,,2023-12-27,47.65837796748826,-121.25835809980462,https://inaturalist-open-data.s3.amazonaws.com/photos/345054568/original.jpeg,Domesticated Dog,/content/drive/MyDrive/SU/dog-compass/dog-data/Domesticated Dog/photos/196047718-2023-12-27.jpg
196041055,2013/05/28 17:24,"Crocker, United States",,,2013-05-28,46.903539627244506,-122.05735045807587,https://inaturalist-open-data.s3.amazonaws.com/photos/345027402/original.jpeg,Domesticated Dog,/content/drive/MyDrive/SU/dog-compass/dog-data/Domesticated Dog/photos/196041055-2013-05-28.jpg
196038828,2024-01-07 19:37:11+03:00,"Anacortes, United States",,,2024-01-07,48.41688549984583,-122.5768903071193,https://inaturalist-open-data.s3.amazonaws.com/photos/345037574/original.jpg,Domesticated Dog,/content/drive/MyDrive/SU/dog-compass/dog-data/Domesticated Dog/photos/196038828-2024-01-07.jpg
196038298,2024-01-01 16:38:03+03:00,"Gold Bar, United States",,,2024-01-01,47.873097631433744,-121.14835469846267,https://inaturalist-open-data.s3.amazonaws.com/photos/345036602/original.jpg,Domesticated Dog,/content/drive/MyDrive/SU/dog-compass/dog-data/Domesticated Dog/photos/196038298-2024-01-01.jpg
196027343,2018/06/21 06:43,"Key Center, United States",,,2018-06-21,47.35287057625413,-122.72932467863059,https://inaturalist-open-data.s3.amazonaws.com/photos/345010862/original.jpeg,Domesticated Dog,/content/drive/MyDrive/SU/dog-compass/dog-data/Domesticated Dog/photos/196027343-2018-06-21.jpg
196019305,2023/12/30 07:36,"Darrington, United States",,,2023-12-30,48.18269942291187,-121.22428197323767,https://inaturalist-open-data.s3.amazonaws.com/photos/344998245/original.jpeg,Domesticated Dog,/content/drive/MyDrive/SU/dog-compass/dog-data/Domesticated Dog/photos/196019305-2023-12-30.jpg
196019304,2023/12/30 07:36,"Wilderness Rim, United States",,,2023-12-30,47.247236084448446,-121.55302900321209,https://inaturalist-open-data.s3.amazonaws.com/photos/344998253/original.jpeg,Domesticated Dog,/content/drive/MyDrive/SU/dog-compass/dog-data/Domesticated Dog/photos/196019304-2023-12-30.jpg
196004570,2024-01-07 13:15:45+08:00,"Orting, United States",,,2024-01-07,47.033340254219674,-122.1996919843235,https://inaturalist-open-data.s3.amazonaws.com/photos/344971713/original.jpg,Domesticated Dog,/content/drive/MyDrive/SU/dog-compass/dog-data/Domesticated Dog/photos/196004570-2024-01-07.jpg
196002202,2020-07-02 09:03:01+10:00,"Arlington, United States",,,2020-07-02,48.190026747056244,-122.14209789208431,https://inaturalist-open-data.s3.amazonaws.com/photos/344966822/original.jpg,Domesticated Dog,/content/drive/MyDrive/SU/dog-compass/dog-data/Domesticated Dog/photos/196002202-2020-07-02.jpg
196002195,2020-07-02 19:06:42+10:00,"Cle Elum, United States",,,2020-07-02,47.014233578533464,-121.16346485742068,https://inaturalist-open-data.s3.amazonaws.com/photos/344966799/original.jpg,Domesticated Dog,/content/drive/MyDrive/SU/dog-compass/dog-data/Domesticated Dog/photos/196002195-2020-07-02.jpg
195994561,2023-12-08 11:26:29,"Darrington, United States",,,2023-12-08,48.20521386778393,-121.58502538926984,https://static.inaturalist.org/photos/344950538/original.jpeg,Domesticated Dog,/content/drive/MyDrive/SU/dog-compass/dog-data/Domesticated Dog/photos/195994561-2023-12-08.jpg
195992226,2024-01-07 08:41:46,"Wauna, United States",,,2024-01-07,47.388070397575994,-122.66972687898301,https://static.inaturalist.org/photos/344945979/original.jpeg,Domesticated Dog,/content/drive/MyDrive/SU/dog-compass/dog-data/Domesticated Dog/photos/195992226-2024-01-07.jpg
195989196,2024-01-07 09:05:06,"North Bend, United States",,,2024-01-07,47.49264675631994,-121.77335336858731,https://static.inaturalist.org/photos/344940265/original.jpeg,Domesticated Dog,/content/drive/MyDrive/SU/dog-compass/dog-data/Domesticated Dog/photos/195989196-2024-01-07.jpg
195987541,2024-01-07 08:43:24+05:30,"Elk Plain, United States",,,2024-01-07,47.065101714065946,-122.3682350338957,https://static.inaturalist.org/photos/344936643/original.jpg,Domesticated Dog,/content/drive/MyDrive/SU/dog-compass/dog-data/Domesticated Dog/photos/195987541-2024-01-07.jpg
195979054,2024/01/06 4:33 PM,"Wilderness Rim, United States","approximate location

this is either a lost or dumped dog. It was seen running around without any owner. I don't know if this counts as captive or not, so please mark it as such if it does!",,2024-01-06,47.12749752678596,-121.49981215720031,https://static.inaturalist.org/photos/344918444/original.jpeg,Domesticated Dog,/content/drive/MyDrive/SU/dog-compass/dog-data/Domesticated Dog/photos/195979054-2024-01-06.jpg
195974344,2024-01-01 15:29:24-08:00,"Enumclaw, United States",,,2024-01-01,46.982010778061706,-121.59055666452589,https://inaturalist-open-data.s3.amazonaws.com/photos/344910373/original.jpg,Domesticated Dog,/content/drive/MyDrive/SU/dog-compass/dog-data/Domesticated Dog/photos/195974344-2024-01-01.jpg
195964120,2023-11-11 12:05:43,"Anacortes, United States",Dig skull with bullet hole,,2023-11-11,48.492329047168425,-122.52339264404291,https://static.inaturalist.org/photos/344889111/original.jpeg,Domesticated Dog,/content/drive/MyDrive/SU/dog-compass/dog-data/Domesticated Dog/photos/195964120-2023-11-11.jpg
195947933,2024/01/05 10:58 AM,"Three Lakes, United States",,,2024-01-05,47.94967490669772,-121.96211152271009,https://inaturalist-open-data.s3.amazonaws.com/photos/344855414/original.jpg,Domesticated Dog,/content/drive/MyDrive/SU/dog-compass/dog-data/Domesticated Dog/photos/195947933-2024-01-05.jpg
195937822,2022-01-01 19:46:24,"Tacoma, United States",,,2022-01-01,47.22837812472647,-122.45450586899419,https://inaturalist-open-data.s3.amazonaws.com/photos/344837109/original.jpeg,Domesticated Dog,/content/drive/MyDrive/SU/dog-compass/dog-data/Domesticated Dog/photos/195937822-2022-01-01.jpg
195912932,2023/05/12 6:38 AM,"Cle Elum, United States",,,2023-05-12,47.418436310359205,-121.10562304962436,https://inaturalist-open-data.s3.amazonaws.com/photos/344787236/original.jpg,Domesticated Dog,/content/drive/MyDrive/SU/dog-compass/dog-data/Domesticated Dog/photos/195912932-2023-05-12.jpg
195892680,2024-01-06 09:02:31,"Friday Harbor, United States",,,2024-01-06,48.64798897386876,-122.86318503519603,https://static.inaturalist.org/photos/344748221/original.jpeg,Domesticated Dog,/content/drive/MyDrive/SU/dog-compass/dog-data/Domesticated Dog/photos/195892680-2024-01-06.jpg
195881214,2023-12-15 22:45:00+10:00,"Shelton, United States",,,2023-12-15,47.27934910132202,-122.9784396360235,https://static.inaturalist.org/photos/344721751/original.jpg,Domesticated Dog,/content/drive/MyDrive/SU/dog-compass/dog-data/Domesticated Dog/photos/195881214-2023-12-15.jpg
195860833,2023-12-27 17:57:51+10:00,"Friday Harbor, United States",,,2023-12-27,48.508004940400156,-122.91552828769836,https://inaturalist-open-data.s3.amazonaws.com/photos/344680254/original.jpg,Domesticated Dog,/content/drive/MyDrive/SU/dog-compass/dog-data/Domesticated Dog/photos/195860833-2023-12-27.jpg
195860201,2024-01-05 14:51:31-05:00,"Leavenworth, United States",,,2024-01-05,47.862168127782624,-121.0970454337343,https://inaturalist-open-data.s3.amazonaws.com/photos/344678347/original.jpg,Domesticated Dog,/content/drive/MyDrive/SU/dog-compass/dog-data/Domesticated Dog/photos/195860201-2024-01-05.jpg
195839782,2024-01-05 16:53:04+05:30,"Geneva, United States",KM beach,,2024-01-05,48.72841773355831,-122.38527443299776,https://static.inaturalist.org/photos/344637604/original.jpg,Domesticated Dog,/content/drive/MyDrive/SU/dog-compass/dog-data/Domesticated Dog/photos/195839782-2024-01-05.jpg
195839290,2024-01-05 17:54:43+05:30,"Cle Elum, United States",NI beach,,2024-01-05,47.29093112105319,-121.15502140501796,https://static.inaturalist.org/photos/344636129/original.jpg,Domesticated Dog,/content/drive/MyDrive/SU/dog-compass/dog-data/Domesticated Dog/photos/195839290-2024-01-05.jpg
195835113,2020/08/23 5:37 AM,"Enumclaw, United States",,,2020-08-23,47.22152389526487,-121.92125352664424,https://inaturalist-open-data.s3.amazonaws.com/photos/344626574/original.jpeg,Domesticated Dog,/content/drive/MyDrive/SU/dog-compass/dog-data/Domesticated Dog/photos/195835113-2020-08-23.jpg
195835111,2019/08/16 4:01 PM,"Belfair, United States",,,2019-08-16,47.50142972488333,-123.04730154539803,https://inaturalist-open-data.s3.amazonaws.com/photos/344626550/original.jpg,Domesticated Dog,/content/drive/MyDrive/SU/dog-compass/dog-data/Domesticated Dog/photos/195835111-2019-08-16.jpg
195835110,2019/08/15 5:46 PM,"Lake Morton-Berrydale, United States",,,2019-08-15,47.32082742219198,-122.08183392754579,https://inaturalist-open-data.s3.amazonaws.com/photos/344626547/original.jpg,Domesticated Dog,/content/drive/MyDrive/SU/dog-compass/dog-data/Domesticated Dog/photos/195835110-2019-08-15.jpg
195835109,2019/07/19 9:02 PM,"Redmond, United States",,,2019-07-19,47.6719156328137,-122.127816490066,https://inaturalist-open-data.s3.amazonaws.com/photos/344626537/original.jpg,Domesticated Dog,/content/drive/MyDrive/SU/dog-compass/dog-data/Domesticated Dog/photos/195835109-2019-07-19.jpg
195835107,2021/01/11 9:39 AM,"Port Hadlock-Irondale, United States",,,2021-01-11,48.07041098440671,-122.81959925869972,https://inaturalist-open-data.s3.amazonaws.com/photos/344626517/original.jpeg,Domesticated Dog,/content/drive/MyDrive/SU/dog-compass/dog-data/Domesticated Dog/photos/195835107-2021-01-11.jpg
195827115,2024-01-04 13:18:46+03:00,"Tumwater, United States",,,2024-01-04,46.965316860748224,-123.03171163837142,https://static.inaturalist.org/photos/344612527/original.jpg,Domesticated Dog,/content/drive/MyDrive/SU/dog-compass/dog-data/Domesticated Dog/photos/195827115-2024-01-04.jpg
195824842,2023-11-29 21:25:00,"Steilacoom, United States",,,2023-11-29,47.16668240445772,-122.57084576079538,https://static.inaturalist.org/photos/344608408/original.jpeg,Domesticated Dog,/content/drive/MyDrive/SU/dog-compass/dog-data/Domesticated Dog/photos/195824842-2023-11-29.jpg
195797486,2024/01/03 11:10 AM,"Fircrest, United States",presumiblemente ferales,,2024-01-03,47.25834935878155,-122.53192618214577,https://inaturalist-open-data.s3.amazonaws.com/photos/344552079/original.jpeg,Domesticated Dog,/content/drive/MyDrive/SU/dog-compass/dog-data/Domesticated Dog/photos/195797486-2024-01-03.jpg
195794576,2024-01-04 17:17:48,"Granite Falls, United States",,,2024-01-04,48.17800814060238,-121.94210387776513,https://static.inaturalist.org/photos/344545674/original.jpeg,Domesticated Dog,/content/drive/MyDrive/SU/dog-compass/dog-data/Domesticated Dog/photos/195794576-2024-01-04.jpg
195792067,2024-01-04 16:04:06,"Tanner, United States",,,2024-01-04,47.47229501032028,-121.72214554783535,https://static.inaturalist.org/photos/344540377/original.jpeg,Domesticated Dog,/content/drive/MyDrive/SU/dog-compass/dog-data/Domesticated Dog/photos/195792067-2024-01-04.jpg
195778622,2022/09/03 3:00 PM,"Sumner, United States",,,2022-09-03,47.18651210204175,-122.25446746671767,https://static.inaturalist.org/photos/344511622/original.jpg,Domesticated Dog,/content/drive/MyDrive/SU/dog-compass/dog-data/Domesticated Dog/photos/195778622-2022-09-03.jpg
195767361,2023-12-28 08:18:06,"Navy Yard City, United States",,,2023-12-28,47.53131558223095,-122.71765158674208,https://inaturalist-open-data.s3.amazonaws.com/photos/344584561/original.jpeg,Domesticated Dog,/content/drive/MyDrive/SU/dog-compass/dog-data/Domesticated Dog/photos/195767361-2023-12-28.jpg
195758966,2024-01-04 16:58:53+01:00,"Belfair, United States",stray dog pack,,2024-01-04,47.47046863520531,-122.83750909800192,https://inaturalist-open-data.s3.amazonaws.com/photos/344474723/original.jpg,Domesticated Dog,/content/drive/MyDrive/SU/dog-compass/dog-data/Domesticated Dog/photos/195758966-2024-01-04.jpg
195756450,2023-12-17 13:41:09,"Woods Creek, United States",,,2023-12-17,47.87653147639925,-121.93035680008869,https://static.inaturalist.org/photos/344470033/original.jpeg,Domesticated Dog,/content/drive/MyDrive/SU/dog-compass/dog-data/Domesticated Dog/photos/195756450-2023-12-17.jpg
195756406,2023-12-27 07:50:42,"Friday Harbor, United States",,,2023-12-27,48.730727111260094,-123.0362361073579,https://static.inaturalist.org/photos/344469933/original.jpeg,Domesticated Dog,/content/drive/MyDrive/SU/dog-compass/dog-data/Domesticated Dog/photos/195756406-2023-12-27.jpg
195744883,2024-01-04 13:43:38,"Tanglewilde-Thompson Place, United States",,,2024-01-04,46.99740241830539,-122.78079967073238,https://inaturalist-open-data.s3.amazonaws.com/photos/344446514/original.jpeg,Domesticated Dog,/content/drive/MyDrive/SU/dog-compass/dog-data/Domesticated Dog/photos/195744883-2024-01-04.jpg
195744129,2024-01-04 16:56:49+07:00,"Port Hadlock-Irondale, United States",,,2024-01-04,48.07554021310575,-122.94007549087738,https://inaturalist-open-data.s3.amazonaws.com/photos/344444867/original.jpg,Domesticated Dog,/content/drive/MyDrive/SU/dog-compass/dog-data/Domesticated Dog/photos/195744129-2024-01-04.jpg
195743435,2023/12/17 14:42,"Darrington, United States",,,2023-12-17,48.21456524479819,-121.294709314155,https://static.inaturalist.org/photos/344437880/original.jpg,Domesticated Dog,/content/drive/MyDrive/SU/dog-compass/dog-data/Domesticated Dog/photos/195743435-2023-12-17.jpg
195736168,2023/09/28 4:54 PM,"Friday Harbor, United States",,,2023-09-28,48.44957451577179,-123.00039836231649,https://inaturalist-open-data.s3.amazonaws.com/photos/344429350/original.jpeg,Domesticated Dog,/content/drive/MyDrive/SU/dog-compass/dog-data/Domesticated Dog/photos/195736168-2023-09-28.jpg
195731219,2024-01-04 13:50:23,"Graham, United States",,,2024-01-04,47.01702524747178,-122.3403073445475,https://static.inaturalist.org/photos/344419803/original.jpeg,Domesticated Dog,/content/drive/MyDrive/SU/dog-compass/dog-data/Domesticated Dog/photos/195731219-2024-01-04.jpg
195723497,2024/01/01 2:00 PM,"Arlington Heights, United States","Skull of what I think is a dog that someone decided to paint.  How it got to laying on a county road, I don't know.",,2024-01-01,48.30765940185681,-121.96289678624744,https://inaturalist-open-data.s3.amazonaws.com/photos/344403411/original.jpeg,Domesticated Dog,/content/drive/MyDrive/SU/dog-compass/dog-data/Domesticated Dog/photos/195723497-2024-01-01.jpg
